[{"nome": "La Pazzeria", "website": "void", "email": "void", "cap": "void", "indirizzo": "void", "lat": 45.4616341, "long": 9.138043, "URI": "http://comune.milano.it/resource/pub/la_pazzeria"}, {"nome": "Pogue Mahone's", "website": "void", "email": "void", "cap": "void", "indirizzo": "void", "lat": 45.4506704, "long": 9.2037648, "URI": "http://comune.milano.it/resource/pub/pogue_mahones"}, {"nome": "Radetzky Caf\u00e9", "website": "http://www.radetzky.it/", "email": "void", "cap": "20121", "indirizzo": "Largo La Foppa", "lat": 45.4784549, "long": 9.1850601, "URI": "http://comune.milano.it/resource/pub/radetzky_cafe"}, {"nome": "Scott Duff", "website": "http://www.scottduff.it", "email": "void", "cap": "20121", "indirizzo": "Via Alessandro Volta", "lat": 45.4799222, "long": 9.1832687, "URI": "http://comune.milano.it/resource/pub/scott_duff"}, {"nome": "Baladin Milano", "website": "void", "email": "void", "cap": "void", "indirizzo": "Via Solferino", "lat": 45.4797332, "long": 9.1889733, "URI": "http://comune.milano.it/resource/pub/baladin_milano"}, {"nome": "The Old Fox Pub", "website": "void", "email": "void", "cap": "void", "indirizzo": "Via Cesare da Sesto", "lat": 45.4588109, "long": 9.1707677, "URI": "http://comune.milano.it/resource/pub/the_old_fox_pub"}, {"nome": "Marghera 37", "website": "void", "email": "void", "cap": "20149", "indirizzo": "Via Marghera", "lat": 45.466786, "long": 9.1523306, "URI": "http://comune.milano.it/resource/pub/marghera_37"}, {"nome": "Il gatto e la volpe", "website": "void", "email": "void", "cap": "void", "indirizzo": "void", "lat": 45.4949167, "long": 9.198145, "URI": "http://comune.milano.it/resource/pub/il_gatto_e_la_volpe"}, {"nome": "Tequila", "website": "void", "email": "void", "cap": "void", "indirizzo": "void", "lat": 45.4950751, "long": 9.197087, "URI": "http://comune.milano.it/resource/pub/tequila"}, {"nome": "Nordest", "website": "void", "email": "void", "cap": "20159", "indirizzo": "Via Pietro Borsieri", "lat": 45.4893238, "long": 9.1888396, "URI": "http://comune.milano.it/resource/pub/nordest"}, {"nome": "Tempi moderni", "website": "void", "email": "void", "cap": "void", "indirizzo": "Via Nicol\u00f2 Fortiguerra", "lat": 45.5141993, "long": 9.208342, "URI": "http://comune.milano.it/resource/pub/tempi_moderni"}, {"nome": "Il Tombino", "website": "void", "email": "void", "cap": "void", "indirizzo": "void", "lat": 45.4609976, "long": 9.1528367, "URI": "http://comune.milano.it/resource/pub/il_tombino"}, {"nome": "Hop", "website": "void", "email": "void", "cap": "void", "indirizzo": "void", "lat": 45.4596135, "long": 9.2064151, "URI": "http://comune.milano.it/resource/pub/hop"}, {"nome": "Wizard", "website": "void", "email": "void", "cap": "void", "indirizzo": "void", "lat": 45.450409, "long": 9.1692728, "URI": "http://comune.milano.it/resource/pub/wizard"}, {"nome": "Le Fontanelle", "website": "void", "email": "void", "cap": "void", "indirizzo": "void", "lat": 45.4518459, "long": 9.17768, "URI": "http://comune.milano.it/resource/pub/le_fontanelle"}, {"nome": "Bar Magenta", "website": "http://barmagenta.it/", "email": "void", "cap": "20123", "indirizzo": "Via Giosu\u00e8 Carducci", "lat": 45.465692, "long": 9.175656, "URI": "http://comune.milano.it/resource/pub/bar_magenta"}, {"nome": "Matricola", "website": "void", "email": "void", "cap": "void", "indirizzo": "void", "lat": 45.4757092, "long": 9.2233689, "URI": "http://comune.milano.it/resource/pub/matricola"}, {"nome": "Hop", "website": "void", "email": "void", "cap": "void", "indirizzo": "void", "lat": 45.4801747, "long": 9.2015922, "URI": "http://comune.milano.it/resource/pub/hop_1"}, {"nome": "Outback caf\u00e9", "website": "void", "email": "void", "cap": "void", "indirizzo": "void", "lat": 45.4803007, "long": 9.2016606, "URI": "http://comune.milano.it/resource/pub/outback_cafe"}, {"nome": "Camarillo Brillo", "website": "void", "email": "void", "cap": "void", "indirizzo": "void", "lat": 45.4445967, "long": 9.141827, "URI": "http://comune.milano.it/resource/pub/camarillo_brillo"}, {"nome": "Tin Whistle", "website": "void", "email": "void", "cap": "void", "indirizzo": "void", "lat": 45.4451996, "long": 9.1446995, "URI": "http://comune.milano.it/resource/pub/tin_whistle"}, {"nome": "Batik", "website": "void", "email": "void", "cap": "void", "indirizzo": "void", "lat": 45.4547927, "long": 9.2164769, "URI": "http://comune.milano.it/resource/pub/batik"}, {"nome": "Place's Pub", "website": "void", "email": "void", "cap": "20095", "indirizzo": "Via Omodei", "lat": 45.5484668, "long": 9.1759075, "URI": "http://comune.milano.it/resource/pub/places_pub"}, {"nome": "Murphy's Pub", "website": "void", "email": "void", "cap": "void", "indirizzo": "void", "lat": 45.4696964, "long": 9.2280645, "URI": "http://comune.milano.it/resource/pub/murphys_pub"}, {"nome": "Le Coq", "website": "void", "email": "void", "cap": "20133", "indirizzo": "Piazza Francesco Guardi", "lat": 45.470509, "long": 9.2268801, "URI": "http://comune.milano.it/resource/pub/le_coq"}, {"nome": "Frida", "website": "http://www.fridaisola.it/", "email": "void", "cap": "20159", "indirizzo": "Via Antonio Pollaiuolo", "lat": 45.4887512, "long": 9.187111, "URI": "http://comune.milano.it/resource/pub/frida"}, {"nome": "Hop", "website": "void", "email": "void", "cap": "void", "indirizzo": "void", "lat": 45.4587087, "long": 9.2061643, "URI": "http://comune.milano.it/resource/pub/hop_2"}, {"nome": "Officina della Birra", "website": "void", "email": "void", "cap": "void", "indirizzo": "void", "lat": 45.536514, "long": 9.1980977, "URI": "http://comune.milano.it/resource/pub/officina_della_birra"}, {"nome": "The Manhattan", "website": "void", "email": "void", "cap": "20121", "indirizzo": "Via Alessandro Volta", "lat": 45.4790873, "long": 9.1841339, "URI": "http://comune.milano.it/resource/pub/the_manhattan"}, {"nome": "Mulligan's", "website": "void", "email": "void", "cap": "void", "indirizzo": "void", "lat": 45.4894039, "long": 9.1677301, "URI": "http://comune.milano.it/resource/pub/mulligans"}, {"nome": "The Saints and the Scholars", "website": "void", "email": "void", "cap": "void", "indirizzo": "void", "lat": 45.4890802, "long": 9.1675217, "URI": "http://comune.milano.it/resource/pub/the_saints_and_the_scholars"}, {"nome": "Woodstock", "website": "void", "email": "void", "cap": "void", "indirizzo": "void", "lat": 45.4474586, "long": 9.1553746, "URI": "http://comune.milano.it/resource/pub/woodstock"}, {"nome": "Chiringuito", "website": "void", "email": "void", "cap": "void", "indirizzo": "void", "lat": 45.4802593, "long": 9.1286846, "URI": "http://comune.milano.it/resource/pub/chiringuito"}, {"nome": "Hop", "website": "http://www.bqmilano.it/004/", "email": "void", "cap": "20154", "indirizzo": "Via Losanna", "lat": 45.4865484, "long": 9.1648819, "URI": "http://comune.milano.it/resource/pub/hop_3"}, {"nome": "Blues Bikers Pub", "website": "http://www.bluesbikerspub.com", "email": "void", "cap": "20136", "indirizzo": "Via Francesco Brioschi", "lat": 45.446903, "long": 9.1805976, "URI": "http://comune.milano.it/resource/pub/blues_bikers_pub"}, {"nome": "Taxi Blues", "website": "void", "email": "void", "cap": "void", "indirizzo": "void", "lat": 45.451173, "long": 9.1897242, "URI": "http://comune.milano.it/resource/pub/taxi_blues"}, {"nome": "Birrificio Lambrate", "website": "http://www.birrificiolambrate.com/", "email": "void", "cap": "20131", "indirizzo": "Via Privata Adelchi", "lat": 45.4857051, "long": 9.2315149, "URI": "http://comune.milano.it/resource/pub/birrificio_lambrate"}, {"nome": "Al Confine", "website": "void", "email": "void", "cap": "void", "indirizzo": "Viale Coni Zugna", "lat": 45.4565354, "long": 9.1706728, "URI": "http://comune.milano.it/resource/pub/al_confine"}, {"nome": "Au Vieux Strasbourg", "website": "void", "email": "void", "cap": "20133", "indirizzo": "Via Gaetano Strambio", "lat": 45.4736675, "long": 9.2342317, "URI": "http://comune.milano.it/resource/pub/au_vieux_strasbourg"}, {"nome": "Stalingrado", "website": "void", "email": "void", "cap": "void", "indirizzo": "void", "lat": 45.4867785, "long": 9.1602382, "URI": "http://comune.milano.it/resource/pub/stalingrado"}, {"nome": "Osteria delle Erbe", "website": "void", "email": "void", "cap": "void", "indirizzo": "void", "lat": 45.5146215, "long": 9.2111879, "URI": "http://comune.milano.it/resource/pub/osteria_delle_erbe"}, {"nome": "Hop", "website": "void", "email": "void", "cap": "20154", "indirizzo": "Via Cenisio", "lat": 45.4871573, "long": 9.1671499, "URI": "http://comune.milano.it/resource/pub/hop_4"}, {"nome": "Whisky Bar", "website": "void", "email": "void", "cap": "void", "indirizzo": "void", "lat": 45.4831171, "long": 9.1640946, "URI": "http://comune.milano.it/resource/pub/whisky_bar"}, {"nome": "Hop", "website": "void", "email": "void", "cap": "void", "indirizzo": "void", "lat": 45.4458102, "long": 9.1786259, "URI": "http://comune.milano.it/resource/pub/hop_5"}, {"nome": "Frizzi & Lazzi", "website": "void", "email": "void", "cap": "20136", "indirizzo": "Via Evangelista Torricelli", "lat": 45.4455769, "long": 9.178355, "URI": "http://comune.milano.it/resource/pub/frizzi_&_lazzi"}, {"nome": "Hop", "website": "void", "email": "void", "cap": "void", "indirizzo": "void", "lat": 45.4807579, "long": 9.2364606, "URI": "http://comune.milano.it/resource/pub/hop_6"}, {"nome": "Hop", "website": "void", "email": "void", "cap": "void", "indirizzo": "void", "lat": 45.4510576, "long": 9.1944915, "URI": "http://comune.milano.it/resource/pub/hop_7"}, {"nome": "JJ's corner", "website": "void", "email": "void", "cap": "void", "indirizzo": "void", "lat": 45.4811644, "long": 9.2352638, "URI": "http://comune.milano.it/resource/pub/jjs_corner"}, {"nome": "Barbarian's", "website": "void", "email": "void", "cap": "20133", "indirizzo": "Via Giovanni Briosi", "lat": 45.470696, "long": 9.2282944, "URI": "http://comune.milano.it/resource/pub/barbarians"}, {"nome": "Pollicino", "website": "void", "email": "void", "cap": "void", "indirizzo": "void", "lat": 45.5425071, "long": 9.1874477, "URI": "http://comune.milano.it/resource/pub/pollicino"}, {"nome": "Slice Caf\u00e8", "website": "void", "email": "void", "cap": "20136", "indirizzo": "Via Ascanio Sforza", "lat": 45.4507319, "long": 9.1780228, "URI": "http://comune.milano.it/resource/pub/slice_cafe"}, {"nome": "Al Confine", "website": "void", "email": "void", "cap": "void", "indirizzo": "Alzaia Naviglio Pavese", "lat": 45.4520811, "long": 9.1776263, "URI": "http://comune.milano.it/resource/pub/al_confine_1"}, {"nome": "La Belle Alliance", "website": "void", "email": "void", "cap": "void", "indirizzo": "void", "lat": 45.4462528, "long": 9.1792204, "URI": "http://comune.milano.it/resource/pub/la_belle_alliance"}, {"nome": "American Bar", "website": "void", "email": "void", "cap": "void", "indirizzo": "void", "lat": 45.377352, "long": 9.2127528, "URI": "http://comune.milano.it/resource/pub/american_bar"}, {"nome": "La bottega del caffe' (Marinella)", "website": "void", "email": "void", "cap": "void", "indirizzo": "void", "lat": 45.4575857, "long": 9.1730117, "URI": "http://comune.milano.it/resource/pub/la_bottega_del_caffe_(marinella)"}, {"nome": "Red Dragon", "website": "void", "email": "void", "cap": "void", "indirizzo": "void", "lat": 45.4532362, "long": 9.1751395, "URI": "http://comune.milano.it/resource/pub/red_dragon"}, {"nome": "Lord Byron", "website": "void", "email": "void", "cap": "void", "indirizzo": "void", "lat": 45.5245539, "long": 9.2712574, "URI": "http://comune.milano.it/resource/pub/lord_byron"}, {"nome": "Nuova Milano 09", "website": "void", "email": "void", "cap": "20138", "indirizzo": "Via Bruno Cassinari", "lat": 45.4380288, "long": 9.2436236, "URI": "http://comune.milano.it/resource/pub/nuova_milano_09"}, {"nome": "Birreria Stella", "website": "void", "email": "void", "cap": "void", "indirizzo": "void", "lat": 45.4685247, "long": 9.2262905, "URI": "http://comune.milano.it/resource/pub/birreria_stella"}, {"nome": "il Cedro", "website": "void", "email": "void", "cap": "20097", "indirizzo": "Via Gaetano Salvemini", "lat": 45.4188143, "long": 9.2596577, "URI": "http://comune.milano.it/resource/pub/il_cedro"}, {"nome": "Birrificio Lambrate", "website": "http://birrificiolambrate.com", "email": "void", "cap": "20133", "indirizzo": "Via Camillo Golgi", "lat": 45.4796769, "long": 9.2344504, "URI": "http://comune.milano.it/resource/pub/birrificio_lambrate_1"}, {"nome": "Harp Pub", "website": "void", "email": "void", "cap": "void", "indirizzo": "Piazza Leonardo da Vinci", "lat": 45.4772546, "long": 9.2255218, "URI": "http://comune.milano.it/resource/pub/harp_pub"}, {"nome": "O' Connell Country Pub", "website": "void", "email": "void", "cap": "void", "indirizzo": "Via Brera", "lat": 45.4696072, "long": 9.1879899, "URI": "http://comune.milano.it/resource/pub/o_connell_country_pub"}, {"nome": "East End", "website": "void", "email": "void", "cap": "void", "indirizzo": "void", "lat": 45.4883457, "long": 9.254188, "URI": "http://comune.milano.it/resource/pub/east_end"}, {"nome": "Stoker", "website": "void", "email": "void", "cap": "void", "indirizzo": "void", "lat": 45.4190665, "long": 9.2543569, "URI": "http://comune.milano.it/resource/pub/stoker"}, {"nome": "Leoncavallo", "website": "void", "email": "void", "cap": "void", "indirizzo": "void", "lat": 45.490367, "long": 9.2247833, "URI": "http://comune.milano.it/resource/pub/leoncavallo"}, {"nome": "L'osteria di Lambrate", "website": "void", "email": "void", "cap": "void", "indirizzo": "void", "lat": 45.4831972, "long": 9.2360635, "URI": "http://comune.milano.it/resource/pub/losteria_di_lambrate"}, {"nome": "Bunshee", "website": "void", "email": "void", "cap": "20097", "indirizzo": "Piazza Supercortemaggiore", "lat": 45.4204047, "long": 9.2585807, "URI": "http://comune.milano.it/resource/pub/bunshee"}, {"nome": "Mulberry St", "website": "void", "email": "void", "cap": "void", "indirizzo": "void", "lat": 45.4232725, "long": 9.2652156, "URI": "http://comune.milano.it/resource/pub/mulberry_st"}, {"nome": "Blender", "website": "void", "email": "void", "cap": "void", "indirizzo": "Piazzale Susa", "lat": 45.4686909, "long": 9.2235692, "URI": "http://comune.milano.it/resource/pub/blender"}, {"nome": "Brasserie Bruxelles", "website": "http://www.brasseriebruxelles.eu/", "email": "void", "cap": "void", "indirizzo": "Viale Abruzzi", "lat": 45.4787442, "long": 9.2167302, "URI": "http://comune.milano.it/resource/pub/brasserie_bruxelles"}, {"nome": "La Belle Aurore", "website": "void", "email": "void", "cap": "20129", "indirizzo": "Via privata Giuseppe Abamonti", "lat": 45.4719305, "long": 9.214541, "URI": "http://comune.milano.it/resource/pub/la_belle_aurore"}, {"nome": "la baracca", "website": "void", "email": "void", "cap": "void", "indirizzo": "void", "lat": 45.5264662, "long": 9.249968, "URI": "http://comune.milano.it/resource/pub/la_baracca"}, {"nome": "Hemingway Caf\u00e9", "website": "void", "email": "void", "cap": "void", "indirizzo": "void", "lat": 45.4850744, "long": 9.2315908, "URI": "http://comune.milano.it/resource/pub/hemingway_cafe"}, {"nome": "Stoker", "website": "https://kkofler.com/milano-2/", "email": "void", "cap": "void", "indirizzo": "Via Tito Livio", "lat": 45.4523978, "long": 9.2146671, "URI": "http://comune.milano.it/resource/pub/stoker_1"}, {"nome": "JustCaf\u00e9", "website": "void", "email": "void", "cap": "void", "indirizzo": "void", "lat": 45.4819379, "long": 9.2278901, "URI": "http://comune.milano.it/resource/pub/justcafe"}, {"nome": "Isola Della Birra", "website": "http://www.isoladellabirra.com", "email": "void", "cap": "20159", "indirizzo": "Via Medardo Rosso", "lat": 45.4897114, "long": 9.1853194, "URI": "http://comune.milano.it/resource/pub/isola_della_birra"}, {"nome": "Big Murphy's", "website": "void", "email": "void", "cap": "20093", "indirizzo": "Via Milano", "lat": 45.5180943, "long": 9.2675445, "URI": "http://comune.milano.it/resource/pub/big_murphys"}, {"nome": "Cambridge", "website": "void", "email": "void", "cap": "void", "indirizzo": "void", "lat": 45.4676716, "long": 9.2230517, "URI": "http://comune.milano.it/resource/pub/cambridge"}, {"nome": "camillo's Pub", "website": "void", "email": "void", "cap": "void", "indirizzo": "void", "lat": 45.4500031, "long": 9.177841, "URI": "http://comune.milano.it/resource/pub/camillos_pub"}, {"nome": "Gecho's pub", "website": "void", "email": "void", "cap": "void", "indirizzo": "void", "lat": 45.4452423, "long": 9.176693, "URI": "http://comune.milano.it/resource/pub/gechos_pub"}, {"nome": "Mayflower pub", "website": "void", "email": "void", "cap": "void", "indirizzo": "void", "lat": 45.4456224, "long": 9.1762958, "URI": "http://comune.milano.it/resource/pub/mayflower_pub"}, {"nome": "Ponte Vecchio Pub", "website": "void", "email": "void", "cap": "void", "indirizzo": "void", "lat": 45.4492053, "long": 9.1771597, "URI": "http://comune.milano.it/resource/pub/ponte_vecchio_pub"}, {"nome": "Maga Furla", "website": "void", "email": "void", "cap": "20125", "indirizzo": "Via Roberto Cozzi", "lat": 45.5095876, "long": 9.2118674, "URI": "http://comune.milano.it/resource/pub/maga_furla"}, {"nome": "Fermento Art&Pub", "website": "http://www.fermentoaep.com/", "email": "void", "cap": "20158", "indirizzo": "Via Camillo Ugoni", "lat": 45.5003025, "long": 9.1707302, "URI": "http://comune.milano.it/resource/pub/fermento_art&pub"}, {"nome": "La Ringhiera", "website": "void", "email": "void", "cap": "void", "indirizzo": "void", "lat": 45.4520986, "long": 9.1772402, "URI": "http://comune.milano.it/resource/pub/la_ringhiera"}, {"nome": "Harp Pub", "website": "void", "email": "void", "cap": "void", "indirizzo": "Viale Umbria", "lat": 45.4536701, "long": 9.215598, "URI": "http://comune.milano.it/resource/pub/harp_pub_1"}, {"nome": "Murphy's Pub", "website": "void", "email": "void", "cap": "void", "indirizzo": "Via Montevideo", "lat": 45.4550413, "long": 9.1666413, "URI": "http://comune.milano.it/resource/pub/murphys_pub_1"}, {"nome": "Jutland Pub", "website": "void", "email": "void", "cap": "void", "indirizzo": "void", "lat": 45.4805274, "long": 9.1852718, "URI": "http://comune.milano.it/resource/pub/jutland_pub"}, {"nome": "Pub24", "website": "void", "email": "void", "cap": "20159", "indirizzo": "Via Pietro Borsieri", "lat": 45.488411, "long": 9.1891153, "URI": "http://comune.milano.it/resource/pub/pub24"}, {"nome": "Paperoga", "website": "void", "email": "void", "cap": "void", "indirizzo": "void", "lat": 45.4648651, "long": 9.2300155, "URI": "http://comune.milano.it/resource/pub/paperoga"}, {"nome": "Rosso Borsieri", "website": "http://www.rossoborsieri.it/", "email": "void", "cap": "20159", "indirizzo": "Via Pietro Borsieri", "lat": 45.4869267, "long": 9.188807, "URI": "http://comune.milano.it/resource/pub/rosso_borsieri"}, {"nome": "BQ - Birra artigianale", "website": "void", "email": "void", "cap": "void", "indirizzo": "Alzaia Naviglio Grande", "lat": 45.4512767, "long": 9.1717146, "URI": "http://comune.milano.it/resource/pub/bq__birra_artigianale"}, {"nome": "Harp Pub", "website": "void", "email": "void", "cap": "void", "indirizzo": "void", "lat": 45.4509778, "long": 9.1702028, "URI": "http://comune.milano.it/resource/pub/harp_pub_2"}, {"nome": "Indiana Post", "website": "void", "email": "void", "cap": "void", "indirizzo": "void", "lat": 45.4512295, "long": 9.1712214, "URI": "http://comune.milano.it/resource/pub/indiana_post"}, {"nome": "Hop", "website": "http://www.bondmilano.it", "email": "void", "cap": "void", "indirizzo": "Via Pasquale Paoli", "lat": 45.4508611, "long": 9.1713435, "URI": "http://comune.milano.it/resource/pub/hop_8"}, {"nome": "Concordia Enoteca", "website": "void", "email": "void", "cap": "void", "indirizzo": "void", "lat": 45.4508194, "long": 9.1710331, "URI": "http://comune.milano.it/resource/pub/concordia_enoteca"}, {"nome": "Blues Canal", "website": "void", "email": "void", "cap": "void", "indirizzo": "void", "lat": 45.4516102, "long": 9.1708129, "URI": "http://comune.milano.it/resource/pub/blues_canal"}, {"nome": "Je suis Jambon", "website": "void", "email": "void", "cap": "void", "indirizzo": "Piazza della Trivulziana", "lat": 45.5148526, "long": 9.2122145, "URI": "http://comune.milano.it/resource/pub/je_suis_jambon"}, {"nome": "Wizard", "website": "void", "email": "void", "cap": "20159", "indirizzo": "Via Antonio Pollaiuolo", "lat": 45.4896876, "long": 9.187804, "URI": "http://comune.milano.it/resource/pub/wizard_1"}, {"nome": "Batik", "website": "void", "email": "void", "cap": "20154", "indirizzo": "Via Ceresio", "lat": 45.4835535, "long": 9.1811925, "URI": "http://comune.milano.it/resource/pub/batik_1"}, {"nome": "Vinyl", "website": "void", "email": "void", "cap": "void", "indirizzo": "void", "lat": 45.4877272, "long": 9.1875031, "URI": "http://comune.milano.it/resource/pub/vinyl"}, {"nome": "Lucky Actors", "website": "void", "email": "void", "cap": "20124", "indirizzo": "Viale Monte Grappa", "lat": 45.4809224, "long": 9.1887328, "URI": "http://comune.milano.it/resource/pub/lucky_actors"}, {"nome": "Tipota Pub", "website": "http://www.tipota.net/", "email": "void", "cap": "void", "indirizzo": "Via Francesco Brioschi", "lat": 45.4452563, "long": 9.180703, "URI": "http://comune.milano.it/resource/pub/tipota_pub"}, {"nome": "Nibida Theatre", "website": "http://www.nidaba.it/", "email": "void", "cap": "20143", "indirizzo": "Via Emilio Gola", "lat": 45.4490246, "long": 9.1762839, "URI": "http://comune.milano.it/resource/pub/nibida_theatre"}, {"nome": "Rock'n'Roll Milano", "website": "void", "email": "void", "cap": "20125", "indirizzo": "Via Giuseppe Bruschetti", "lat": 45.4925338, "long": 9.2075644, "URI": "http://comune.milano.it/resource/pub/rocknroll_milano"}, {"nome": "Madrigal Irish Pub", "website": "void", "email": "void", "cap": "20099", "indirizzo": "Via Giuseppe Rovani", "lat": 45.5357949, "long": 9.2201308, "URI": "http://comune.milano.it/resource/pub/madrigal_irish_pub"}, {"nome": "Consorzio Birre Pub", "website": "void", "email": "void", "cap": "20099", "indirizzo": "Via Vincenzo Gioberti", "lat": 45.5358515, "long": 9.2222331, "URI": "http://comune.milano.it/resource/pub/consorzio_birre_pub"}, {"nome": "Vinyl", "website": "void", "email": "void", "cap": "void", "indirizzo": "void", "lat": 45.4507167, "long": 9.1704697, "URI": "http://comune.milano.it/resource/pub/vinyl_1"}, {"nome": "Mind the Step", "website": "void", "email": "void", "cap": "void", "indirizzo": "void", "lat": 45.4742999, "long": 9.2234256, "URI": "http://comune.milano.it/resource/pub/mind_the_step"}, {"nome": "The Good Life", "website": "void", "email": "void", "cap": "20159", "indirizzo": "Via Carlo Farini", "lat": 45.4892647, "long": 9.1831976, "URI": "http://comune.milano.it/resource/pub/the_good_life"}, {"nome": "Batik", "website": "void", "email": "void", "cap": "void", "indirizzo": "void", "lat": 45.4512755, "long": 9.1716692, "URI": "http://comune.milano.it/resource/pub/batik_2"}, {"nome": "Abnormal", "website": "void", "email": "void", "cap": "void", "indirizzo": "void", "lat": 45.4409249, "long": 9.1814693, "URI": "http://comune.milano.it/resource/pub/abnormal"}, {"nome": "Hop", "website": "void", "email": "void", "cap": "20099", "indirizzo": "Via Felice Cavallotti", "lat": 45.5319312, "long": 9.237054, "URI": "http://comune.milano.it/resource/pub/hop_9"}, {"nome": "La buttega beer room", "website": "http://www.labuttiga.it", "email": "void", "cap": "20125", "indirizzo": "Via Melchiorre Gioia", "lat": 45.4975736, "long": 9.2086831, "URI": "http://comune.milano.it/resource/pub/la_buttega_beer_room"}, {"nome": "Drago Verde", "website": "void", "email": "void", "cap": "20154", "indirizzo": "Piazzale Antonio Baiamonti", "lat": 45.4823676, "long": 9.1811537, "URI": "http://comune.milano.it/resource/pub/drago_verde"}, {"nome": "Nordest", "website": "void", "email": "void", "cap": "void", "indirizzo": "void", "lat": 45.5238074, "long": 9.1925759, "URI": "http://comune.milano.it/resource/pub/nordest_1"}, {"nome": "Lambiczoon", "website": "void", "email": "void", "cap": "void", "indirizzo": "Via Friuli", "lat": 45.4541396, "long": 9.2134173, "URI": "http://comune.milano.it/resource/pub/lambiczoon"}, {"nome": "Harp Pub", "website": "gurupubmilano.com", "email": "void", "cap": "void", "indirizzo": "Via Lodovico il Moro", "lat": 45.4452238, "long": 9.1448249, "URI": "http://comune.milano.it/resource/pub/harp_pub_3"}, {"nome": "Zhizun Pub", "website": "void", "email": "void", "cap": "20159", "indirizzo": "Via Alserio", "lat": 45.4914095, "long": 9.1847285, "URI": "http://comune.milano.it/resource/pub/zhizun_pub"}, {"nome": "Hop", "website": "void", "email": "void", "cap": "20135", "indirizzo": "Via Andrea Maffei", "lat": 45.4577567, "long": 9.2079204, "URI": "http://comune.milano.it/resource/pub/hop_10"}, {"nome": "Mind the Step", "website": "void", "email": "void", "cap": "void", "indirizzo": "void", "lat": 45.456213, "long": 9.202606, "URI": "http://comune.milano.it/resource/pub/mind_the_step_1"}, {"nome": "Ralph's", "website": "void", "email": "void", "cap": "void", "indirizzo": "void", "lat": 45.4578194, "long": 9.1807356, "URI": "http://comune.milano.it/resource/pub/ralphs"}, {"nome": "Birreria Stella", "website": "http://www.spillerbirrerie.it/milano/", "email": "void", "cap": "20135", "indirizzo": "Via Antonio Fogazzaro", "lat": 45.4576105, "long": 9.2094733, "URI": "http://comune.milano.it/resource/pub/birreria_stella_1"}, {"nome": "The White Flag", "website": "http://www.thewhiteflag.it", "email": "void", "cap": "20139", "indirizzo": "Via Brembo", "lat": 45.4446317, "long": 9.2105485, "URI": "http://comune.milano.it/resource/pub/the_white_flag"}, {"nome": "The English Football Pub", "website": "void", "email": "void", "cap": "20123", "indirizzo": "Via Valpetrosa", "lat": 45.4620417, "long": 9.1853897, "URI": "http://comune.milano.it/resource/pub/the_english_football_pub"}, {"nome": "Sacrestia", "website": "void", "email": "void", "cap": "void", "indirizzo": "void", "lat": 45.445785, "long": 9.1768673, "URI": "http://comune.milano.it/resource/pub/sacrestia"}, {"nome": "Cambusa 2.0", "website": "void", "email": "void", "cap": "void", "indirizzo": "Piazzale Tripoli", "lat": 45.4585878, "long": 9.149288, "URI": "http://comune.milano.it/resource/pub/cambusa_20"}, {"nome": "Birreria Al panino 900", "website": "void", "email": "void", "cap": "void", "indirizzo": "void", "lat": 45.4561919, "long": 9.169909, "URI": "http://comune.milano.it/resource/pub/birreria_al_panino_900"}, {"nome": "The Friends", "website": "https://www.thefriendspubmilano.it", "email": "void", "cap": "void", "indirizzo": "void", "lat": 45.4801903, "long": 9.1934014, "URI": "http://comune.milano.it/resource/pub/the_friends"}, {"nome": "Impronta Birraia", "website": "http://www.improntabirraia.it/", "email": "void", "cap": "20134", "indirizzo": "Via Tucidide", "lat": 45.4706518, "long": 9.2460207, "URI": "http://comune.milano.it/resource/pub/impronta_birraia"}, {"nome": "Ai Tre Morsi", "website": "void", "email": "void", "cap": "20123", "indirizzo": "Via Terraggio", "lat": 45.4657555, "long": 9.1764585, "URI": "http://comune.milano.it/resource/pub/ai_tre_morsi"}, {"nome": "Black Bull", "website": "void", "email": "void", "cap": "void", "indirizzo": "Viale Certosa", "lat": 45.4935031, "long": 9.1434607, "URI": "http://comune.milano.it/resource/pub/black_bull"}, {"nome": "Caf\u00e9 Etniko", "website": "void", "email": "void", "cap": "20154", "indirizzo": "Milano", "lat": 45.4777017, "long": 9.1776717, "URI": "http://comune.milano.it/resource/pub/cafe_etniko"}, {"nome": "Birrificio artigianale La Buttiga", "website": "void", "email": "void", "cap": "20154", "indirizzo": "Via Paolo Sarpi", "lat": 45.4810185, "long": 9.170259, "URI": "http://comune.milano.it/resource/pub/birrificio_artigianale_la_buttiga"}, {"nome": "Nik's & Co", "website": "http://niksandco.it/", "email": "void", "cap": "20125", "indirizzo": "Via Giovanni Schiaparelli", "lat": 45.4903659, "long": 9.2037822, "URI": "http://comune.milano.it/resource/pub/niks_&_co"}, {"nome": "Cape Town Cafe", "website": "http://capetowncafe.it", "email": "void", "cap": "20144", "indirizzo": "Via Vigevano", "lat": 45.4527235, "long": 9.1756177, "URI": "http://comune.milano.it/resource/pub/cape_town_cafe"}, {"nome": "Hernry's Caf\u00e8", "website": "void", "email": "void", "cap": "void", "indirizzo": "Viale Col di Lana", "lat": 45.4520993, "long": 9.1820534, "URI": "http://comune.milano.it/resource/pub/hernrys_cafe"}, {"nome": "La Birrofila", "website": "http://labirrofila.com", "email": "void", "cap": "20141", "indirizzo": "Via privata Sant'Ampellio", "lat": 45.4382102, "long": 9.1845842, "URI": "http://comune.milano.it/resource/pub/la_birrofila"}, {"nome": "Birreria Okey", "website": "void", "email": "void", "cap": "20159", "indirizzo": "Largo Vulci", "lat": 45.4984325, "long": 9.1935316, "URI": "http://comune.milano.it/resource/pub/birreria_okey"}, {"nome": "Beda House", "website": "http://www.bedahouse.it/", "email": "void", "cap": "20159", "indirizzo": "Via Gioacchino Murat", "lat": 45.4965543, "long": 9.1922736, "URI": "http://comune.milano.it/resource/pub/beda_house"}, {"nome": "Sporting Pub", "website": "void", "email": "void", "cap": "void", "indirizzo": "void", "lat": 45.5111924, "long": 9.2006239, "URI": "http://comune.milano.it/resource/pub/sporting_pub"}, {"nome": "Bere Buona Birra", "website": "http://www.berebuonabirra.com", "email": "void", "cap": "void", "indirizzo": "void", "lat": 45.4480409, "long": 9.2052687, "URI": "http://comune.milano.it/resource/pub/bere_buona_birra"}, {"nome": "442 Sports Pub", "website": "https://www.fourfourtwo.it/", "email": "void", "cap": "20154", "indirizzo": "Via Giulio Cesare Procaccini", "lat": 45.4814927, "long": 9.1675973, "URI": "http://comune.milano.it/resource/pub/442_sports_pub"}, {"nome": "Wizard", "website": "void", "email": "void", "cap": "20091", "indirizzo": "Via Vittorio Veneto", "lat": 45.5405486, "long": 9.1892575, "URI": "http://comune.milano.it/resource/pub/wizard_2"}, {"nome": "Tir Na Nog", "website": "void", "email": "void", "cap": "void", "indirizzo": "void", "lat": 45.5317335, "long": 9.1942523, "URI": "http://comune.milano.it/resource/pub/tir_na_nog"}, {"nome": "Birrificio Belgrano", "website": "https://www.birrificiobelgrano.com", "email": "void", "cap": "20131", "indirizzo": "Via Giovanni Pacini", "lat": 45.4839644, "long": 9.2346208, "URI": "http://comune.milano.it/resource/pub/birrificio_belgrano"}, {"nome": "Beer Gallery", "website": "http://www.beergallery.it", "email": "void", "cap": "void", "indirizzo": "Via Enrico Stendhal", "lat": 45.4522663, "long": 9.1602285, "URI": "http://comune.milano.it/resource/pub/beer_gallery"}, {"nome": "Brew Pub Yankee", "website": "void", "email": "void", "cap": "void", "indirizzo": "void", "lat": 45.45509, "long": 9.1553057, "URI": "http://comune.milano.it/resource/pub/brew_pub_yankee"}, {"nome": "Meatball Family", "website": "http://www.themeatballfamily.com/it/", "email": "void", "cap": "20144", "indirizzo": "Via Vigevano", "lat": 45.4532032, "long": 9.1722295, "URI": "http://comune.milano.it/resource/pub/meatball_family"}, {"nome": "Al 48", "website": "void", "email": "void", "cap": "20099", "indirizzo": "Via 20 Settembre", "lat": 45.5328567, "long": 9.2256001, "URI": "http://comune.milano.it/resource/pub/al_48"}, {"nome": "La Buca di San Vincenzo", "website": "http://www.labucadisanvincenzo.com/", "email": "void", "cap": "20123", "indirizzo": "Via San Vincenzo", "lat": 45.4584882, "long": 9.1745576, "URI": "http://comune.milano.it/resource/pub/la_buca_di_san_vincenzo"}, {"nome": "east market milano", "website": "void", "email": "void", "cap": "void", "indirizzo": "Via Giovanni Ventura", "lat": 45.4846273, "long": 9.2468138, "URI": "http://comune.milano.it/resource/pub/east_market_milano"}, {"nome": "Pav\u00e8 - Birra", "website": "void", "email": "void", "cap": "void", "indirizzo": "void", "lat": 45.4791943, "long": 9.2028058, "URI": "http://comune.milano.it/resource/pub/pave__birra"}, {"nome": "Barbruto", "website": "void", "email": "void", "cap": "void", "indirizzo": "void", "lat": 45.450733, "long": 9.1932558, "URI": "http://comune.milano.it/resource/pub/barbruto"}, {"nome": "Il Mago di Oz", "website": "https://www.facebook.com/ilmagonovate/", "email": "void", "cap": "20026", "indirizzo": "Piazza della Pace", "lat": 45.5394353, "long": 9.1365293, "URI": "http://comune.milano.it/resource/pub/il_mago_di_oz"}, {"nome": "Al 48", "website": "void", "email": "void", "cap": "void", "indirizzo": "void", "lat": 45.4542339, "long": 9.2134279, "URI": "http://comune.milano.it/resource/pub/al_48_1"}, {"nome": "Il Piccolo Bistro", "website": "void", "email": "void", "cap": "void", "indirizzo": "void", "lat": 45.4583057, "long": 9.1929293, "URI": "http://comune.milano.it/resource/pub/il_piccolo_bistro"}, {"nome": "Stranobar", "website": "void", "email": "void", "cap": "void", "indirizzo": "void", "lat": 45.453058, "long": 9.2124913, "URI": "http://comune.milano.it/resource/pub/stranobar"}, {"nome": "Ittolitos", "website": "void", "email": "void", "cap": "void", "indirizzo": "void", "lat": 45.4402953, "long": 9.1463299, "URI": "http://comune.milano.it/resource/pub/ittolitos"}, {"nome": "Molly Malone", "website": "void", "email": "void", "cap": "20099", "indirizzo": "Via Felice Cavallotti", "lat": 45.5296174, "long": 9.2328474, "URI": "http://comune.milano.it/resource/pub/molly_malone"}, {"nome": "The Grey Cat Pub", "website": "void", "email": "void", "cap": "void", "indirizzo": "void", "lat": 45.4739416, "long": 9.3057401, "URI": "http://comune.milano.it/resource/pub/the_grey_cat_pub"}, {"nome": "John Barleycorn", "website": "void", "email": "void", "cap": "20128", "indirizzo": "Via Aristotele", "lat": 45.5062384, "long": 9.2246976, "URI": "http://comune.milano.it/resource/pub/john_barleycorn"}, {"nome": "Brooklyn pub", "website": "void", "email": "void", "cap": "void", "indirizzo": "void", "lat": 45.4784141, "long": 9.154891, "URI": "http://comune.milano.it/resource/pub/brooklyn_pub"}, {"nome": "Octopus", "website": "void", "email": "void", "cap": "20143", "indirizzo": "Via Giacomo Watt", "lat": 45.4440412, "long": 9.152231, "URI": "http://comune.milano.it/resource/pub/octopus"}, {"nome": "Hop", "website": "void", "email": "void", "cap": "void", "indirizzo": "Via Antonio Pollaiuolo", "lat": 45.4889694, "long": 9.1873664, "URI": "http://comune.milano.it/resource/pub/hop_11"}, {"nome": "BeerShow", "website": "void", "email": "void", "cap": "void", "indirizzo": "void", "lat": 45.4891069, "long": 9.1892051, "URI": "http://comune.milano.it/resource/pub/beershow"}, {"nome": "Santeria Social Club", "website": "https://www.santeria.milano.it", "email": "void", "cap": "void", "indirizzo": "Viale Toscana", "lat": 45.4891069, "long": 9.1892051, "URI": "http://comune.milano.it/resource/pub/santeria_social_club"}, {"nome": "Colorado Pub", "website": "void", "email": "void", "cap": "void", "indirizzo": "Via Barnaba Oriani", "lat": 45.4891069, "long": 9.1892051, "URI": "http://comune.milano.it/resource/pub/colorado_pub"}, {"nome": "Castle Rock Caf\u00e8", "website": "void", "email": "void", "cap": "20157", "indirizzo": "Via privata Venezia Giulia", "lat": 45.4891069, "long": 9.1892051, "URI": "http://comune.milano.it/resource/pub/castle_rock_cafe"}, {"nome": "Sacrestia", "website": "http://sacrestia.com/", "email": "void", "cap": "void", "indirizzo": "Via Conchetta", "lat": 45.4891069, "long": 9.1892051, "URI": "http://comune.milano.it/resource/pub/sacrestia_1"}, {"nome": "Cascina Martesana", "website": "http://www.cascinamartesana.com/", "email": "void", "cap": "void", "indirizzo": "Via Luigi Bertelli", "lat": 45.4891069, "long": 9.1892051, "URI": "http://comune.milano.it/resource/pub/cascina_martesana"}, {"nome": "La Chiesetta", "website": "http://www.lachiesetta.it", "email": "void", "cap": "void", "indirizzo": "void", "lat": 45.4891069, "long": 9.1892051, "URI": "http://comune.milano.it/resource/pub/la_chiesetta"}, {"nome": "Birrificio La Ribalta", "website": "https://www.birrificiolaribalta.com/", "email": "void", "cap": "20158", "indirizzo": "Via Cevedale", "lat": 45.4891069, "long": 9.1892051, "URI": "http://comune.milano.it/resource/pub/birrificio_la_ribalta"}, {"nome": "La Pazzeria", "website": "void", "email": "void", "cap": "void", "indirizzo": "void", "lat": 45.4616341, "long": 9.138043, "URI": "http://comune.milano.it/resource/pub/la_pazzeria_1"}, {"nome": "Pogue Mahone's", "website": "void", "email": "void", "cap": "void", "indirizzo": "void", "lat": 45.4506704, "long": 9.2037648, "URI": "http://comune.milano.it/resource/pub/pogue_mahones_1"}, {"nome": "Radetzky Caf\u00e9", "website": "http://www.radetzky.it/", "email": "void", "cap": "20121", "indirizzo": "Largo La Foppa", "lat": 45.4784549, "long": 9.1850601, "URI": "http://comune.milano.it/resource/pub/radetzky_cafe_1"}, {"nome": "Scott Duff", "website": "http://www.scottduff.it", "email": "void", "cap": "20121", "indirizzo": "Via Alessandro Volta", "lat": 45.4799222, "long": 9.1832687, "URI": "http://comune.milano.it/resource/pub/scott_duff_1"}, {"nome": "Baladin Milano", "website": "void", "email": "void", "cap": "void", "indirizzo": "Via Solferino", "lat": 45.4797332, "long": 9.1889733, "URI": "http://comune.milano.it/resource/pub/baladin_milano_1"}, {"nome": "The Old Fox Pub", "website": "void", "email": "void", "cap": "void", "indirizzo": "Via Cesare da Sesto", "lat": 45.4588109, "long": 9.1707677, "URI": "http://comune.milano.it/resource/pub/the_old_fox_pub_1"}, {"nome": "Marghera 37", "website": "void", "email": "void", "cap": "20149", "indirizzo": "Via Marghera", "lat": 45.466786, "long": 9.1523306, "URI": "http://comune.milano.it/resource/pub/marghera_37_1"}, {"nome": "Il gatto e la volpe", "website": "void", "email": "void", "cap": "void", "indirizzo": "void", "lat": 45.4949167, "long": 9.198145, "URI": "http://comune.milano.it/resource/pub/il_gatto_e_la_volpe_1"}, {"nome": "Tequila", "website": "void", "email": "void", "cap": "void", "indirizzo": "void", "lat": 45.4950751, "long": 9.197087, "URI": "http://comune.milano.it/resource/pub/tequila_1"}, {"nome": "Nordest", "website": "void", "email": "void", "cap": "20159", "indirizzo": "Via Pietro Borsieri", "lat": 45.4893238, "long": 9.1888396, "URI": "http://comune.milano.it/resource/pub/nordest_2"}, {"nome": "Tempi moderni", "website": "void", "email": "void", "cap": "void", "indirizzo": "Via Nicol\u00f2 Fortiguerra", "lat": 45.5141993, "long": 9.208342, "URI": "http://comune.milano.it/resource/pub/tempi_moderni_1"}, {"nome": "Il Tombino", "website": "void", "email": "void", "cap": "void", "indirizzo": "void", "lat": 45.4609976, "long": 9.1528367, "URI": "http://comune.milano.it/resource/pub/il_tombino_1"}, {"nome": "Hop", "website": "void", "email": "void", "cap": "void", "indirizzo": "void", "lat": 45.4596135, "long": 9.2064151, "URI": "http://comune.milano.it/resource/pub/hop_12"}, {"nome": "Wizard", "website": "void", "email": "void", "cap": "void", "indirizzo": "void", "lat": 45.450409, "long": 9.1692728, "URI": "http://comune.milano.it/resource/pub/wizard_3"}, {"nome": "Le Fontanelle", "website": "void", "email": "void", "cap": "void", "indirizzo": "void", "lat": 45.4518459, "long": 9.17768, "URI": "http://comune.milano.it/resource/pub/le_fontanelle_1"}, {"nome": "Bar Magenta", "website": "http://barmagenta.it/", "email": "void", "cap": "20123", "indirizzo": "Via Giosu\u00e8 Carducci", "lat": 45.465692, "long": 9.175656, "URI": "http://comune.milano.it/resource/pub/bar_magenta_1"}, {"nome": "Matricola", "website": "void", "email": "void", "cap": "void", "indirizzo": "void", "lat": 45.4757092, "long": 9.2233689, "URI": "http://comune.milano.it/resource/pub/matricola_1"}, {"nome": "Hop", "website": "void", "email": "void", "cap": "void", "indirizzo": "void", "lat": 45.4801747, "long": 9.2015922, "URI": "http://comune.milano.it/resource/pub/hop_13"}, {"nome": "Outback caf\u00e9", "website": "void", "email": "void", "cap": "void", "indirizzo": "void", "lat": 45.4803007, "long": 9.2016606, "URI": "http://comune.milano.it/resource/pub/outback_cafe_1"}, {"nome": "Camarillo Brillo", "website": "void", "email": "void", "cap": "void", "indirizzo": "void", "lat": 45.4445967, "long": 9.141827, "URI": "http://comune.milano.it/resource/pub/camarillo_brillo_1"}, {"nome": "Tin Whistle", "website": "void", "email": "void", "cap": "void", "indirizzo": "void", "lat": 45.4451996, "long": 9.1446995, "URI": "http://comune.milano.it/resource/pub/tin_whistle_1"}, {"nome": "Batik", "website": "void", "email": "void", "cap": "void", "indirizzo": "void", "lat": 45.4547927, "long": 9.2164769, "URI": "http://comune.milano.it/resource/pub/batik_3"}, {"nome": "Place's Pub", "website": "void", "email": "void", "cap": "20095", "indirizzo": "Via Omodei", "lat": 45.5484668, "long": 9.1759075, "URI": "http://comune.milano.it/resource/pub/places_pub_1"}, {"nome": "Murphy's Pub", "website": "void", "email": "void", "cap": "void", "indirizzo": "void", "lat": 45.4696964, "long": 9.2280645, "URI": "http://comune.milano.it/resource/pub/murphys_pub_2"}, {"nome": "Le Coq", "website": "void", "email": "void", "cap": "20133", "indirizzo": "Piazza Francesco Guardi", "lat": 45.470509, "long": 9.2268801, "URI": "http://comune.milano.it/resource/pub/le_coq_1"}, {"nome": "Frida", "website": "http://www.fridaisola.it/", "email": "void", "cap": "20159", "indirizzo": "Via Antonio Pollaiuolo", "lat": 45.4887512, "long": 9.187111, "URI": "http://comune.milano.it/resource/pub/frida_1"}, {"nome": "Hop", "website": "void", "email": "void", "cap": "void", "indirizzo": "void", "lat": 45.4587087, "long": 9.2061643, "URI": "http://comune.milano.it/resource/pub/hop_14"}, {"nome": "Officina della Birra", "website": "void", "email": "void", "cap": "void", "indirizzo": "void", "lat": 45.536514, "long": 9.1980977, "URI": "http://comune.milano.it/resource/pub/officina_della_birra_1"}, {"nome": "The Manhattan", "website": "void", "email": "void", "cap": "20121", "indirizzo": "Via Alessandro Volta", "lat": 45.4790873, "long": 9.1841339, "URI": "http://comune.milano.it/resource/pub/the_manhattan_1"}, {"nome": "Mulligan's", "website": "void", "email": "void", "cap": "void", "indirizzo": "void", "lat": 45.4894039, "long": 9.1677301, "URI": "http://comune.milano.it/resource/pub/mulligans_1"}, {"nome": "The Saints and the Scholars", "website": "void", "email": "void", "cap": "void", "indirizzo": "void", "lat": 45.4890802, "long": 9.1675217, "URI": "http://comune.milano.it/resource/pub/the_saints_and_the_scholars_1"}, {"nome": "Woodstock", "website": "void", "email": "void", "cap": "void", "indirizzo": "void", "lat": 45.4474586, "long": 9.1553746, "URI": "http://comune.milano.it/resource/pub/woodstock_1"}, {"nome": "Chiringuito", "website": "void", "email": "void", "cap": "void", "indirizzo": "void", "lat": 45.4802593, "long": 9.1286846, "URI": "http://comune.milano.it/resource/pub/chiringuito_1"}, {"nome": "Hop", "website": "http://www.bqmilano.it/004/", "email": "void", "cap": "20154", "indirizzo": "Via Losanna", "lat": 45.4865484, "long": 9.1648819, "URI": "http://comune.milano.it/resource/pub/hop_15"}, {"nome": "Blues Bikers Pub", "website": "http://www.bluesbikerspub.com", "email": "void", "cap": "20136", "indirizzo": "Via Francesco Brioschi", "lat": 45.446903, "long": 9.1805976, "URI": "http://comune.milano.it/resource/pub/blues_bikers_pub_1"}, {"nome": "Taxi Blues", "website": "void", "email": "void", "cap": "void", "indirizzo": "void", "lat": 45.451173, "long": 9.1897242, "URI": "http://comune.milano.it/resource/pub/taxi_blues_1"}, {"nome": "Birrificio Lambrate", "website": "http://www.birrificiolambrate.com/", "email": "void", "cap": "20131", "indirizzo": "Via Privata Adelchi", "lat": 45.4857051, "long": 9.2315149, "URI": "http://comune.milano.it/resource/pub/birrificio_lambrate_2"}, {"nome": "Al Confine", "website": "void", "email": "void", "cap": "void", "indirizzo": "Viale Coni Zugna", "lat": 45.4565354, "long": 9.1706728, "URI": "http://comune.milano.it/resource/pub/al_confine_2"}, {"nome": "Au Vieux Strasbourg", "website": "void", "email": "void", "cap": "20133", "indirizzo": "Via Gaetano Strambio", "lat": 45.4736675, "long": 9.2342317, "URI": "http://comune.milano.it/resource/pub/au_vieux_strasbourg_1"}, {"nome": "Stalingrado", "website": "void", "email": "void", "cap": "void", "indirizzo": "void", "lat": 45.4867785, "long": 9.1602382, "URI": "http://comune.milano.it/resource/pub/stalingrado_1"}, {"nome": "Osteria delle Erbe", "website": "void", "email": "void", "cap": "void", "indirizzo": "void", "lat": 45.5146215, "long": 9.2111879, "URI": "http://comune.milano.it/resource/pub/osteria_delle_erbe_1"}, {"nome": "Hop", "website": "void", "email": "void", "cap": "20154", "indirizzo": "Via Cenisio", "lat": 45.4871573, "long": 9.1671499, "URI": "http://comune.milano.it/resource/pub/hop_16"}, {"nome": "Whisky Bar", "website": "void", "email": "void", "cap": "void", "indirizzo": "void", "lat": 45.4831171, "long": 9.1640946, "URI": "http://comune.milano.it/resource/pub/whisky_bar_1"}, {"nome": "Hop", "website": "void", "email": "void", "cap": "void", "indirizzo": "void", "lat": 45.4458102, "long": 9.1786259, "URI": "http://comune.milano.it/resource/pub/hop_17"}, {"nome": "Frizzi & Lazzi", "website": "void", "email": "void", "cap": "20136", "indirizzo": "Via Evangelista Torricelli", "lat": 45.4455769, "long": 9.178355, "URI": "http://comune.milano.it/resource/pub/frizzi_&_lazzi_1"}, {"nome": "Hop", "website": "void", "email": "void", "cap": "void", "indirizzo": "void", "lat": 45.4807579, "long": 9.2364606, "URI": "http://comune.milano.it/resource/pub/hop_18"}, {"nome": "Hop", "website": "void", "email": "void", "cap": "void", "indirizzo": "void", "lat": 45.4510576, "long": 9.1944915, "URI": "http://comune.milano.it/resource/pub/hop_19"}, {"nome": "JJ's corner", "website": "void", "email": "void", "cap": "void", "indirizzo": "void", "lat": 45.4811644, "long": 9.2352638, "URI": "http://comune.milano.it/resource/pub/jjs_corner_1"}, {"nome": "Barbarian's", "website": "void", "email": "void", "cap": "20133", "indirizzo": "Via Giovanni Briosi", "lat": 45.470696, "long": 9.2282944, "URI": "http://comune.milano.it/resource/pub/barbarians_1"}, {"nome": "Pollicino", "website": "void", "email": "void", "cap": "void", "indirizzo": "void", "lat": 45.5425071, "long": 9.1874477, "URI": "http://comune.milano.it/resource/pub/pollicino_1"}, {"nome": "Slice Caf\u00e8", "website": "void", "email": "void", "cap": "20136", "indirizzo": "Via Ascanio Sforza", "lat": 45.4507319, "long": 9.1780228, "URI": "http://comune.milano.it/resource/pub/slice_cafe_1"}, {"nome": "Al Confine", "website": "void", "email": "void", "cap": "void", "indirizzo": "Alzaia Naviglio Pavese", "lat": 45.4520811, "long": 9.1776263, "URI": "http://comune.milano.it/resource/pub/al_confine_3"}, {"nome": "La Belle Alliance", "website": "void", "email": "void", "cap": "void", "indirizzo": "void", "lat": 45.4462528, "long": 9.1792204, "URI": "http://comune.milano.it/resource/pub/la_belle_alliance_1"}, {"nome": "American Bar", "website": "void", "email": "void", "cap": "void", "indirizzo": "void", "lat": 45.377352, "long": 9.2127528, "URI": "http://comune.milano.it/resource/pub/american_bar_1"}, {"nome": "La bottega del caffe' (Marinella)", "website": "void", "email": "void", "cap": "void", "indirizzo": "void", "lat": 45.4575857, "long": 9.1730117, "URI": "http://comune.milano.it/resource/pub/la_bottega_del_caffe_(marinella)_1"}, {"nome": "Red Dragon", "website": "void", "email": "void", "cap": "void", "indirizzo": "void", "lat": 45.4532362, "long": 9.1751395, "URI": "http://comune.milano.it/resource/pub/red_dragon_1"}, {"nome": "Lord Byron", "website": "void", "email": "void", "cap": "void", "indirizzo": "void", "lat": 45.5245539, "long": 9.2712574, "URI": "http://comune.milano.it/resource/pub/lord_byron_1"}, {"nome": "Nuova Milano 09", "website": "void", "email": "void", "cap": "20138", "indirizzo": "Via Bruno Cassinari", "lat": 45.4380288, "long": 9.2436236, "URI": "http://comune.milano.it/resource/pub/nuova_milano_09_1"}, {"nome": "Birreria Stella", "website": "void", "email": "void", "cap": "void", "indirizzo": "void", "lat": 45.4685247, "long": 9.2262905, "URI": "http://comune.milano.it/resource/pub/birreria_stella_2"}, {"nome": "il Cedro", "website": "void", "email": "void", "cap": "20097", "indirizzo": "Via Gaetano Salvemini", "lat": 45.4188143, "long": 9.2596577, "URI": "http://comune.milano.it/resource/pub/il_cedro_1"}, {"nome": "Birrificio Lambrate", "website": "http://birrificiolambrate.com", "email": "void", "cap": "20133", "indirizzo": "Via Camillo Golgi", "lat": 45.4796769, "long": 9.2344504, "URI": "http://comune.milano.it/resource/pub/birrificio_lambrate_3"}, {"nome": "Harp Pub", "website": "void", "email": "void", "cap": "void", "indirizzo": "Piazza Leonardo da Vinci", "lat": 45.4772546, "long": 9.2255218, "URI": "http://comune.milano.it/resource/pub/harp_pub_4"}, {"nome": "O' Connell Country Pub", "website": "void", "email": "void", "cap": "void", "indirizzo": "Via Brera", "lat": 45.4696072, "long": 9.1879899, "URI": "http://comune.milano.it/resource/pub/o_connell_country_pub_1"}, {"nome": "East End", "website": "void", "email": "void", "cap": "void", "indirizzo": "void", "lat": 45.4883457, "long": 9.254188, "URI": "http://comune.milano.it/resource/pub/east_end_1"}, {"nome": "Stoker", "website": "void", "email": "void", "cap": "void", "indirizzo": "void", "lat": 45.4190665, "long": 9.2543569, "URI": "http://comune.milano.it/resource/pub/stoker_2"}, {"nome": "Leoncavallo", "website": "void", "email": "void", "cap": "void", "indirizzo": "void", "lat": 45.490367, "long": 9.2247833, "URI": "http://comune.milano.it/resource/pub/leoncavallo_1"}, {"nome": "L'osteria di Lambrate", "website": "void", "email": "void", "cap": "void", "indirizzo": "void", "lat": 45.4831972, "long": 9.2360635, "URI": "http://comune.milano.it/resource/pub/losteria_di_lambrate_1"}, {"nome": "Bunshee", "website": "void", "email": "void", "cap": "20097", "indirizzo": "Piazza Supercortemaggiore", "lat": 45.4204047, "long": 9.2585807, "URI": "http://comune.milano.it/resource/pub/bunshee_1"}, {"nome": "Mulberry St", "website": "void", "email": "void", "cap": "void", "indirizzo": "void", "lat": 45.4232725, "long": 9.2652156, "URI": "http://comune.milano.it/resource/pub/mulberry_st_1"}, {"nome": "Blender", "website": "void", "email": "void", "cap": "void", "indirizzo": "Piazzale Susa", "lat": 45.4686909, "long": 9.2235692, "URI": "http://comune.milano.it/resource/pub/blender_1"}, {"nome": "Brasserie Bruxelles", "website": "http://www.brasseriebruxelles.eu/", "email": "void", "cap": "void", "indirizzo": "Viale Abruzzi", "lat": 45.4787442, "long": 9.2167302, "URI": "http://comune.milano.it/resource/pub/brasserie_bruxelles_1"}, {"nome": "La Belle Aurore", "website": "void", "email": "void", "cap": "20129", "indirizzo": "Via privata Giuseppe Abamonti", "lat": 45.4719305, "long": 9.214541, "URI": "http://comune.milano.it/resource/pub/la_belle_aurore_1"}, {"nome": "la baracca", "website": "void", "email": "void", "cap": "void", "indirizzo": "void", "lat": 45.5264662, "long": 9.249968, "URI": "http://comune.milano.it/resource/pub/la_baracca_1"}, {"nome": "Hemingway Caf\u00e9", "website": "void", "email": "void", "cap": "void", "indirizzo": "void", "lat": 45.4850744, "long": 9.2315908, "URI": "http://comune.milano.it/resource/pub/hemingway_cafe_1"}, {"nome": "Stoker", "website": "https://kkofler.com/milano-2/", "email": "void", "cap": "void", "indirizzo": "Via Tito Livio", "lat": 45.4523978, "long": 9.2146671, "URI": "http://comune.milano.it/resource/pub/stoker_3"}, {"nome": "JustCaf\u00e9", "website": "void", "email": "void", "cap": "void", "indirizzo": "void", "lat": 45.4819379, "long": 9.2278901, "URI": "http://comune.milano.it/resource/pub/justcafe_1"}, {"nome": "Isola Della Birra", "website": "http://www.isoladellabirra.com", "email": "void", "cap": "20159", "indirizzo": "Via Medardo Rosso", "lat": 45.4897114, "long": 9.1853194, "URI": "http://comune.milano.it/resource/pub/isola_della_birra_1"}, {"nome": "Big Murphy's", "website": "void", "email": "void", "cap": "20093", "indirizzo": "Via Milano", "lat": 45.5180943, "long": 9.2675445, "URI": "http://comune.milano.it/resource/pub/big_murphys_1"}, {"nome": "Cambridge", "website": "void", "email": "void", "cap": "void", "indirizzo": "void", "lat": 45.4676716, "long": 9.2230517, "URI": "http://comune.milano.it/resource/pub/cambridge_1"}, {"nome": "camillo's Pub", "website": "void", "email": "void", "cap": "void", "indirizzo": "void", "lat": 45.4500031, "long": 9.177841, "URI": "http://comune.milano.it/resource/pub/camillos_pub_1"}, {"nome": "Gecho's pub", "website": "void", "email": "void", "cap": "void", "indirizzo": "void", "lat": 45.4452423, "long": 9.176693, "URI": "http://comune.milano.it/resource/pub/gechos_pub_1"}, {"nome": "Mayflower pub", "website": "void", "email": "void", "cap": "void", "indirizzo": "void", "lat": 45.4456224, "long": 9.1762958, "URI": "http://comune.milano.it/resource/pub/mayflower_pub_1"}, {"nome": "Ponte Vecchio Pub", "website": "void", "email": "void", "cap": "void", "indirizzo": "void", "lat": 45.4492053, "long": 9.1771597, "URI": "http://comune.milano.it/resource/pub/ponte_vecchio_pub_1"}, {"nome": "Maga Furla", "website": "void", "email": "void", "cap": "20125", "indirizzo": "Via Roberto Cozzi", "lat": 45.5095876, "long": 9.2118674, "URI": "http://comune.milano.it/resource/pub/maga_furla_1"}, {"nome": "Fermento Art&Pub", "website": "http://www.fermentoaep.com/", "email": "void", "cap": "20158", "indirizzo": "Via Camillo Ugoni", "lat": 45.5003025, "long": 9.1707302, "URI": "http://comune.milano.it/resource/pub/fermento_art&pub_1"}, {"nome": "La Ringhiera", "website": "void", "email": "void", "cap": "void", "indirizzo": "void", "lat": 45.4520986, "long": 9.1772402, "URI": "http://comune.milano.it/resource/pub/la_ringhiera_1"}, {"nome": "Harp Pub", "website": "void", "email": "void", "cap": "void", "indirizzo": "Viale Umbria", "lat": 45.4536701, "long": 9.215598, "URI": "http://comune.milano.it/resource/pub/harp_pub_5"}, {"nome": "Murphy's Pub", "website": "void", "email": "void", "cap": "void", "indirizzo": "Via Montevideo", "lat": 45.4550413, "long": 9.1666413, "URI": "http://comune.milano.it/resource/pub/murphys_pub_3"}, {"nome": "Jutland Pub", "website": "void", "email": "void", "cap": "void", "indirizzo": "void", "lat": 45.4805274, "long": 9.1852718, "URI": "http://comune.milano.it/resource/pub/jutland_pub_1"}, {"nome": "Pub24", "website": "void", "email": "void", "cap": "20159", "indirizzo": "Via Pietro Borsieri", "lat": 45.488411, "long": 9.1891153, "URI": "http://comune.milano.it/resource/pub/pub24_1"}, {"nome": "Paperoga", "website": "void", "email": "void", "cap": "void", "indirizzo": "void", "lat": 45.4648651, "long": 9.2300155, "URI": "http://comune.milano.it/resource/pub/paperoga_1"}, {"nome": "Rosso Borsieri", "website": "http://www.rossoborsieri.it/", "email": "void", "cap": "20159", "indirizzo": "Via Pietro Borsieri", "lat": 45.4869267, "long": 9.188807, "URI": "http://comune.milano.it/resource/pub/rosso_borsieri_1"}, {"nome": "BQ - Birra artigianale", "website": "void", "email": "void", "cap": "void", "indirizzo": "Alzaia Naviglio Grande", "lat": 45.4512767, "long": 9.1717146, "URI": "http://comune.milano.it/resource/pub/bq__birra_artigianale_1"}, {"nome": "Harp Pub", "website": "void", "email": "void", "cap": "void", "indirizzo": "void", "lat": 45.4509778, "long": 9.1702028, "URI": "http://comune.milano.it/resource/pub/harp_pub_6"}, {"nome": "Indiana Post", "website": "void", "email": "void", "cap": "void", "indirizzo": "void", "lat": 45.4512295, "long": 9.1712214, "URI": "http://comune.milano.it/resource/pub/indiana_post_1"}, {"nome": "Hop", "website": "http://www.bondmilano.it", "email": "void", "cap": "void", "indirizzo": "Via Pasquale Paoli", "lat": 45.4508611, "long": 9.1713435, "URI": "http://comune.milano.it/resource/pub/hop_20"}, {"nome": "Concordia Enoteca", "website": "void", "email": "void", "cap": "void", "indirizzo": "void", "lat": 45.4508194, "long": 9.1710331, "URI": "http://comune.milano.it/resource/pub/concordia_enoteca_1"}, {"nome": "Blues Canal", "website": "void", "email": "void", "cap": "void", "indirizzo": "void", "lat": 45.4516102, "long": 9.1708129, "URI": "http://comune.milano.it/resource/pub/blues_canal_1"}, {"nome": "Je suis Jambon", "website": "void", "email": "void", "cap": "void", "indirizzo": "Piazza della Trivulziana", "lat": 45.5148526, "long": 9.2122145, "URI": "http://comune.milano.it/resource/pub/je_suis_jambon_1"}, {"nome": "Wizard", "website": "void", "email": "void", "cap": "20159", "indirizzo": "Via Antonio Pollaiuolo", "lat": 45.4896876, "long": 9.187804, "URI": "http://comune.milano.it/resource/pub/wizard_4"}, {"nome": "Batik", "website": "void", "email": "void", "cap": "20154", "indirizzo": "Via Ceresio", "lat": 45.4835535, "long": 9.1811925, "URI": "http://comune.milano.it/resource/pub/batik_4"}, {"nome": "Vinyl", "website": "void", "email": "void", "cap": "void", "indirizzo": "void", "lat": 45.4877272, "long": 9.1875031, "URI": "http://comune.milano.it/resource/pub/vinyl_2"}, {"nome": "Lucky Actors", "website": "void", "email": "void", "cap": "20124", "indirizzo": "Viale Monte Grappa", "lat": 45.4809224, "long": 9.1887328, "URI": "http://comune.milano.it/resource/pub/lucky_actors_1"}, {"nome": "Tipota Pub", "website": "http://www.tipota.net/", "email": "void", "cap": "void", "indirizzo": "Via Francesco Brioschi", "lat": 45.4452563, "long": 9.180703, "URI": "http://comune.milano.it/resource/pub/tipota_pub_1"}, {"nome": "Nibida Theatre", "website": "http://www.nidaba.it/", "email": "void", "cap": "20143", "indirizzo": "Via Emilio Gola", "lat": 45.4490246, "long": 9.1762839, "URI": "http://comune.milano.it/resource/pub/nibida_theatre_1"}, {"nome": "Rock'n'Roll Milano", "website": "void", "email": "void", "cap": "20125", "indirizzo": "Via Giuseppe Bruschetti", "lat": 45.4925338, "long": 9.2075644, "URI": "http://comune.milano.it/resource/pub/rocknroll_milano_1"}, {"nome": "Madrigal Irish Pub", "website": "void", "email": "void", "cap": "20099", "indirizzo": "Via Giuseppe Rovani", "lat": 45.5357949, "long": 9.2201308, "URI": "http://comune.milano.it/resource/pub/madrigal_irish_pub_1"}, {"nome": "Consorzio Birre Pub", "website": "void", "email": "void", "cap": "20099", "indirizzo": "Via Vincenzo Gioberti", "lat": 45.5358515, "long": 9.2222331, "URI": "http://comune.milano.it/resource/pub/consorzio_birre_pub_1"}, {"nome": "Vinyl", "website": "void", "email": "void", "cap": "void", "indirizzo": "void", "lat": 45.4507167, "long": 9.1704697, "URI": "http://comune.milano.it/resource/pub/vinyl_3"}, {"nome": "Mind the Step", "website": "void", "email": "void", "cap": "void", "indirizzo": "void", "lat": 45.4742999, "long": 9.2234256, "URI": "http://comune.milano.it/resource/pub/mind_the_step_2"}, {"nome": "The Good Life", "website": "void", "email": "void", "cap": "20159", "indirizzo": "Via Carlo Farini", "lat": 45.4892647, "long": 9.1831976, "URI": "http://comune.milano.it/resource/pub/the_good_life_1"}, {"nome": "Batik", "website": "void", "email": "void", "cap": "void", "indirizzo": "void", "lat": 45.4512755, "long": 9.1716692, "URI": "http://comune.milano.it/resource/pub/batik_5"}, {"nome": "Abnormal", "website": "void", "email": "void", "cap": "void", "indirizzo": "void", "lat": 45.4409249, "long": 9.1814693, "URI": "http://comune.milano.it/resource/pub/abnormal_1"}, {"nome": "Hop", "website": "void", "email": "void", "cap": "20099", "indirizzo": "Via Felice Cavallotti", "lat": 45.5319312, "long": 9.237054, "URI": "http://comune.milano.it/resource/pub/hop_21"}, {"nome": "La buttega beer room", "website": "http://www.labuttiga.it", "email": "void", "cap": "20125", "indirizzo": "Via Melchiorre Gioia", "lat": 45.4975736, "long": 9.2086831, "URI": "http://comune.milano.it/resource/pub/la_buttega_beer_room_1"}, {"nome": "Drago Verde", "website": "void", "email": "void", "cap": "20154", "indirizzo": "Piazzale Antonio Baiamonti", "lat": 45.4823676, "long": 9.1811537, "URI": "http://comune.milano.it/resource/pub/drago_verde_1"}, {"nome": "Nordest", "website": "void", "email": "void", "cap": "void", "indirizzo": "void", "lat": 45.5238074, "long": 9.1925759, "URI": "http://comune.milano.it/resource/pub/nordest_3"}, {"nome": "Lambiczoon", "website": "void", "email": "void", "cap": "void", "indirizzo": "Via Friuli", "lat": 45.4541396, "long": 9.2134173, "URI": "http://comune.milano.it/resource/pub/lambiczoon_1"}, {"nome": "Harp Pub", "website": "gurupubmilano.com", "email": "void", "cap": "void", "indirizzo": "Via Lodovico il Moro", "lat": 45.4452238, "long": 9.1448249, "URI": "http://comune.milano.it/resource/pub/harp_pub_7"}, {"nome": "Zhizun Pub", "website": "void", "email": "void", "cap": "20159", "indirizzo": "Via Alserio", "lat": 45.4914095, "long": 9.1847285, "URI": "http://comune.milano.it/resource/pub/zhizun_pub_1"}, {"nome": "Hop", "website": "void", "email": "void", "cap": "20135", "indirizzo": "Via Andrea Maffei", "lat": 45.4577567, "long": 9.2079204, "URI": "http://comune.milano.it/resource/pub/hop_22"}, {"nome": "Mind the Step", "website": "void", "email": "void", "cap": "void", "indirizzo": "void", "lat": 45.456213, "long": 9.202606, "URI": "http://comune.milano.it/resource/pub/mind_the_step_3"}, {"nome": "Ralph's", "website": "void", "email": "void", "cap": "void", "indirizzo": "void", "lat": 45.4578194, "long": 9.1807356, "URI": "http://comune.milano.it/resource/pub/ralphs_1"}, {"nome": "Birreria Stella", "website": "http://www.spillerbirrerie.it/milano/", "email": "void", "cap": "20135", "indirizzo": "Via Antonio Fogazzaro", "lat": 45.4576105, "long": 9.2094733, "URI": "http://comune.milano.it/resource/pub/birreria_stella_3"}, {"nome": "The White Flag", "website": "http://www.thewhiteflag.it", "email": "void", "cap": "20139", "indirizzo": "Via Brembo", "lat": 45.4446317, "long": 9.2105485, "URI": "http://comune.milano.it/resource/pub/the_white_flag_1"}, {"nome": "The English Football Pub", "website": "void", "email": "void", "cap": "20123", "indirizzo": "Via Valpetrosa", "lat": 45.4620417, "long": 9.1853897, "URI": "http://comune.milano.it/resource/pub/the_english_football_pub_1"}, {"nome": "Sacrestia", "website": "void", "email": "void", "cap": "void", "indirizzo": "void", "lat": 45.445785, "long": 9.1768673, "URI": "http://comune.milano.it/resource/pub/sacrestia_2"}, {"nome": "Cambusa 2.0", "website": "void", "email": "void", "cap": "void", "indirizzo": "Piazzale Tripoli", "lat": 45.4585878, "long": 9.149288, "URI": "http://comune.milano.it/resource/pub/cambusa_20_1"}, {"nome": "Birreria Al panino 900", "website": "void", "email": "void", "cap": "void", "indirizzo": "void", "lat": 45.4561919, "long": 9.169909, "URI": "http://comune.milano.it/resource/pub/birreria_al_panino_900_1"}, {"nome": "The Friends", "website": "https://www.thefriendspubmilano.it", "email": "void", "cap": "void", "indirizzo": "void", "lat": 45.4801903, "long": 9.1934014, "URI": "http://comune.milano.it/resource/pub/the_friends_1"}, {"nome": "Impronta Birraia", "website": "http://www.improntabirraia.it/", "email": "void", "cap": "20134", "indirizzo": "Via Tucidide", "lat": 45.4706518, "long": 9.2460207, "URI": "http://comune.milano.it/resource/pub/impronta_birraia_1"}, {"nome": "Ai Tre Morsi", "website": "void", "email": "void", "cap": "20123", "indirizzo": "Via Terraggio", "lat": 45.4657555, "long": 9.1764585, "URI": "http://comune.milano.it/resource/pub/ai_tre_morsi_1"}, {"nome": "Black Bull", "website": "void", "email": "void", "cap": "void", "indirizzo": "Viale Certosa", "lat": 45.4935031, "long": 9.1434607, "URI": "http://comune.milano.it/resource/pub/black_bull_1"}, {"nome": "Caf\u00e9 Etniko", "website": "void", "email": "void", "cap": "20154", "indirizzo": "Milano", "lat": 45.4777017, "long": 9.1776717, "URI": "http://comune.milano.it/resource/pub/cafe_etniko_1"}, {"nome": "Birrificio artigianale La Buttiga", "website": "void", "email": "void", "cap": "20154", "indirizzo": "Via Paolo Sarpi", "lat": 45.4810185, "long": 9.170259, "URI": "http://comune.milano.it/resource/pub/birrificio_artigianale_la_buttiga_1"}, {"nome": "Nik's & Co", "website": "http://niksandco.it/", "email": "void", "cap": "20125", "indirizzo": "Via Giovanni Schiaparelli", "lat": 45.4903659, "long": 9.2037822, "URI": "http://comune.milano.it/resource/pub/niks_&_co_1"}, {"nome": "Cape Town Cafe", "website": "http://capetowncafe.it", "email": "void", "cap": "20144", "indirizzo": "Via Vigevano", "lat": 45.4527235, "long": 9.1756177, "URI": "http://comune.milano.it/resource/pub/cape_town_cafe_1"}, {"nome": "Hernry's Caf\u00e8", "website": "void", "email": "void", "cap": "void", "indirizzo": "Viale Col di Lana", "lat": 45.4520993, "long": 9.1820534, "URI": "http://comune.milano.it/resource/pub/hernrys_cafe_1"}, {"nome": "La Birrofila", "website": "http://labirrofila.com", "email": "void", "cap": "20141", "indirizzo": "Via privata Sant'Ampellio", "lat": 45.4382102, "long": 9.1845842, "URI": "http://comune.milano.it/resource/pub/la_birrofila_1"}, {"nome": "Birreria Okey", "website": "void", "email": "void", "cap": "20159", "indirizzo": "Largo Vulci", "lat": 45.4984325, "long": 9.1935316, "URI": "http://comune.milano.it/resource/pub/birreria_okey_1"}, {"nome": "Beda House", "website": "http://www.bedahouse.it/", "email": "void", "cap": "20159", "indirizzo": "Via Gioacchino Murat", "lat": 45.4965543, "long": 9.1922736, "URI": "http://comune.milano.it/resource/pub/beda_house_1"}, {"nome": "Sporting Pub", "website": "void", "email": "void", "cap": "void", "indirizzo": "void", "lat": 45.5111924, "long": 9.2006239, "URI": "http://comune.milano.it/resource/pub/sporting_pub_1"}, {"nome": "Bere Buona Birra", "website": "http://www.berebuonabirra.com", "email": "void", "cap": "void", "indirizzo": "void", "lat": 45.4480409, "long": 9.2052687, "URI": "http://comune.milano.it/resource/pub/bere_buona_birra_1"}, {"nome": "442 Sports Pub", "website": "https://www.fourfourtwo.it/", "email": "void", "cap": "20154", "indirizzo": "Via Giulio Cesare Procaccini", "lat": 45.4814927, "long": 9.1675973, "URI": "http://comune.milano.it/resource/pub/442_sports_pub_1"}, {"nome": "Wizard", "website": "void", "email": "void", "cap": "20091", "indirizzo": "Via Vittorio Veneto", "lat": 45.5405486, "long": 9.1892575, "URI": "http://comune.milano.it/resource/pub/wizard_5"}, {"nome": "Tir Na Nog", "website": "void", "email": "void", "cap": "void", "indirizzo": "void", "lat": 45.5317335, "long": 9.1942523, "URI": "http://comune.milano.it/resource/pub/tir_na_nog_1"}, {"nome": "Birrificio Belgrano", "website": "https://www.birrificiobelgrano.com", "email": "void", "cap": "20131", "indirizzo": "Via Giovanni Pacini", "lat": 45.4839644, "long": 9.2346208, "URI": "http://comune.milano.it/resource/pub/birrificio_belgrano_1"}, {"nome": "Beer Gallery", "website": "http://www.beergallery.it", "email": "void", "cap": "void", "indirizzo": "Via Enrico Stendhal", "lat": 45.4522663, "long": 9.1602285, "URI": "http://comune.milano.it/resource/pub/beer_gallery_1"}, {"nome": "Brew Pub Yankee", "website": "void", "email": "void", "cap": "void", "indirizzo": "void", "lat": 45.45509, "long": 9.1553057, "URI": "http://comune.milano.it/resource/pub/brew_pub_yankee_1"}, {"nome": "Meatball Family", "website": "http://www.themeatballfamily.com/it/", "email": "void", "cap": "20144", "indirizzo": "Via Vigevano", "lat": 45.4532032, "long": 9.1722295, "URI": "http://comune.milano.it/resource/pub/meatball_family_1"}, {"nome": "Al 48", "website": "void", "email": "void", "cap": "20099", "indirizzo": "Via 20 Settembre", "lat": 45.5328567, "long": 9.2256001, "URI": "http://comune.milano.it/resource/pub/al_48_2"}, {"nome": "La Buca di San Vincenzo", "website": "http://www.labucadisanvincenzo.com/", "email": "void", "cap": "20123", "indirizzo": "Via San Vincenzo", "lat": 45.4584882, "long": 9.1745576, "URI": "http://comune.milano.it/resource/pub/la_buca_di_san_vincenzo_1"}, {"nome": "east market milano", "website": "void", "email": "void", "cap": "void", "indirizzo": "Via Giovanni Ventura", "lat": 45.4846273, "long": 9.2468138, "URI": "http://comune.milano.it/resource/pub/east_market_milano_1"}, {"nome": "Pav\u00e8 - Birra", "website": "void", "email": "void", "cap": "void", "indirizzo": "void", "lat": 45.4791943, "long": 9.2028058, "URI": "http://comune.milano.it/resource/pub/pave__birra_1"}, {"nome": "Barbruto", "website": "void", "email": "void", "cap": "void", "indirizzo": "void", "lat": 45.450733, "long": 9.1932558, "URI": "http://comune.milano.it/resource/pub/barbruto_1"}, {"nome": "Il Mago di Oz", "website": "https://www.facebook.com/ilmagonovate/", "email": "void", "cap": "20026", "indirizzo": "Piazza della Pace", "lat": 45.5394353, "long": 9.1365293, "URI": "http://comune.milano.it/resource/pub/il_mago_di_oz_1"}, {"nome": "Al 48", "website": "void", "email": "void", "cap": "void", "indirizzo": "void", "lat": 45.4542339, "long": 9.2134279, "URI": "http://comune.milano.it/resource/pub/al_48_3"}, {"nome": "Il Piccolo Bistro", "website": "void", "email": "void", "cap": "void", "indirizzo": "void", "lat": 45.4583057, "long": 9.1929293, "URI": "http://comune.milano.it/resource/pub/il_piccolo_bistro_1"}, {"nome": "Stranobar", "website": "void", "email": "void", "cap": "void", "indirizzo": "void", "lat": 45.453058, "long": 9.2124913, "URI": "http://comune.milano.it/resource/pub/stranobar_1"}, {"nome": "Ittolitos", "website": "void", "email": "void", "cap": "void", "indirizzo": "void", "lat": 45.4402953, "long": 9.1463299, "URI": "http://comune.milano.it/resource/pub/ittolitos_1"}, {"nome": "Molly Malone", "website": "void", "email": "void", "cap": "20099", "indirizzo": "Via Felice Cavallotti", "lat": 45.5296174, "long": 9.2328474, "URI": "http://comune.milano.it/resource/pub/molly_malone_1"}, {"nome": "The Grey Cat Pub", "website": "void", "email": "void", "cap": "void", "indirizzo": "void", "lat": 45.4739416, "long": 9.3057401, "URI": "http://comune.milano.it/resource/pub/the_grey_cat_pub_1"}, {"nome": "John Barleycorn", "website": "void", "email": "void", "cap": "20128", "indirizzo": "Via Aristotele", "lat": 45.5062384, "long": 9.2246976, "URI": "http://comune.milano.it/resource/pub/john_barleycorn_1"}, {"nome": "Brooklyn pub", "website": "void", "email": "void", "cap": "void", "indirizzo": "void", "lat": 45.4784141, "long": 9.154891, "URI": "http://comune.milano.it/resource/pub/brooklyn_pub_1"}, {"nome": "Octopus", "website": "void", "email": "void", "cap": "20143", "indirizzo": "Via Giacomo Watt", "lat": 45.4440412, "long": 9.152231, "URI": "http://comune.milano.it/resource/pub/octopus_1"}, {"nome": "Hop", "website": "void", "email": "void", "cap": "void", "indirizzo": "Via Antonio Pollaiuolo", "lat": 45.4889694, "long": 9.1873664, "URI": "http://comune.milano.it/resource/pub/hop_23"}, {"nome": "BeerShow", "website": "void", "email": "void", "cap": "void", "indirizzo": "void", "lat": 45.4891069, "long": 9.1892051, "URI": "http://comune.milano.it/resource/pub/beershow_1"}, {"nome": "Santeria Social Club", "website": "https://www.santeria.milano.it", "email": "void", "cap": "void", "indirizzo": "Viale Toscana", "lat": 45.4891069, "long": 9.1892051, "URI": "http://comune.milano.it/resource/pub/santeria_social_club_1"}, {"nome": "Colorado Pub", "website": "void", "email": "void", "cap": "void", "indirizzo": "Via Barnaba Oriani", "lat": 45.4891069, "long": 9.1892051, "URI": "http://comune.milano.it/resource/pub/colorado_pub_1"}, {"nome": "Castle Rock Caf\u00e8", "website": "void", "email": "void", "cap": "20157", "indirizzo": "Via privata Venezia Giulia", "lat": 45.4891069, "long": 9.1892051, "URI": "http://comune.milano.it/resource/pub/castle_rock_cafe_1"}, {"nome": "Sacrestia", "website": "http://sacrestia.com/", "email": "void", "cap": "void", "indirizzo": "Via Conchetta", "lat": 45.4891069, "long": 9.1892051, "URI": "http://comune.milano.it/resource/pub/sacrestia_3"}, {"nome": "Cascina Martesana", "website": "http://www.cascinamartesana.com/", "email": "void", "cap": "void", "indirizzo": "Via Luigi Bertelli", "lat": 45.4891069, "long": 9.1892051, "URI": "http://comune.milano.it/resource/pub/cascina_martesana_1"}, {"nome": "La Chiesetta", "website": "http://www.lachiesetta.it", "email": "void", "cap": "void", "indirizzo": "void", "lat": 45.4891069, "long": 9.1892051, "URI": "http://comune.milano.it/resource/pub/la_chiesetta_1"}, {"nome": "Birrificio La Ribalta", "website": "https://www.birrificiolaribalta.com/", "email": "void", "cap": "20158", "indirizzo": "Via Cevedale", "lat": 45.4891069, "long": 9.1892051, "URI": "http://comune.milano.it/resource/pub/birrificio_la_ribalta_1"}]