[{"nome": "TRE TORRI", "lat": 45.47814018467403, "long": 9.156675327340007, "linea": "5", "URI": "http://comune.milano.it/resource/subwayStation/tre_torri"}, {"nome": "ZARA", "lat": 45.492664401028385, "long": 9.192601107884476, "linea": "3", "URI": "http://comune.milano.it/resource/subwayStation/zara"}, {"nome": "ZARA", "lat": 45.492664401028385, "long": 9.192601107884476, "linea": "5", "URI": "http://comune.milano.it/resource/subwayStation/zara_1"}, {"nome": "WAGNER", "lat": 45.46795010103326, "long": 9.15591440789601, "linea": "1", "URI": "http://comune.milano.it/resource/subwayStation/wagner"}, {"nome": "VIMODRONE", "lat": 45.51578330101957, "long": 9.285989107849822, "linea": "2", "URI": "http://comune.milano.it/resource/subwayStation/vimodrone"}, {"nome": "VILLA S.G.", "lat": 45.517454501023714, "long": 9.22613020787423, "linea": "1", "URI": "http://comune.milano.it/resource/subwayStation/villa_sg"}, {"nome": "VILLA POMPEA", "lat": 45.52784851866394, "long": 9.38497435183026, "linea": "2", "URI": "http://comune.milano.it/resource/subwayStation/villa_pompea"}, {"nome": "VILLA FIORITA", "lat": 45.52073979973284, "long": 9.345971366778144, "linea": "2", "URI": "http://comune.milano.it/resource/subwayStation/villa_fiorita"}, {"nome": "URUGUAY", "lat": 45.49371690103352, "long": 9.120545907913728, "linea": "1", "URI": "http://comune.milano.it/resource/subwayStation/uruguay"}, {"nome": "WAGNER", "lat": 45.4912044010253, "long": 9.236996407866346, "linea": "2", "URI": "http://comune.milano.it/resource/subwayStation/wagner_1"}, {"nome": "ZARA", "lat": 45.500445501025595, "long": 9.221004707874036, "linea": "1", "URI": "http://comune.milano.it/resource/subwayStation/zara_2"}, {"nome": "ZARA", "lat": 45.475040701029805, "long": 9.194706707881283, "linea": "3", "URI": "http://comune.milano.it/resource/subwayStation/zara_3"}, {"nome": "SONDRIO", "lat": 45.48999020102804, "long": 9.200558407880905, "linea": "3", "URI": "http://comune.milano.it/resource/subwayStation/sondrio"}, {"nome": "S.LEONARDO", "lat": 45.50115550103422, "long": 9.101481207922426, "linea": "1", "URI": "http://comune.milano.it/resource/subwayStation/sleonardo"}, {"nome": "SESTO RONDO", "lat": 45.53415930102185, "long": 9.23124580787439, "linea": "1", "URI": "http://comune.milano.it/resource/subwayStation/sesto_rondo"}, {"nome": "SESTO MARELLI", "lat": 45.52347710102303, "long": 9.22796150787429, "linea": "1", "URI": "http://comune.milano.it/resource/subwayStation/sesto_marelli"}, {"nome": "SESTO 1 MAGGIO FS", "lat": 45.541691201020654, "long": 9.23833340787253, "linea": "1", "URI": "http://comune.milano.it/resource/subwayStation/sesto_1_maggio_fs"}, {"nome": "SEGESTA", "lat": 45.47635873874508, "long": 9.137893993682969, "linea": "5", "URI": "http://comune.milano.it/resource/subwayStation/segesta"}, {"nome": "SAN SIRO STADIO", "lat": 45.47625889461679, "long": 9.11831543256738, "linea": "5", "URI": "http://comune.milano.it/resource/subwayStation/san_siro_stadio"}, {"nome": "SAN SIRO IPPODROMO", "lat": 45.47620897248482, "long": 9.129012446413247, "linea": "5", "URI": "http://comune.milano.it/resource/subwayStation/san_siro_ippodromo"}, {"nome": "SAN DONATO", "lat": 45.42920640102951, "long": 9.256233907850342, "linea": "3", "URI": "http://comune.milano.it/resource/subwayStation/san_donato"}, {"nome": "SAN BABILA", "lat": 45.46652140103037, "long": 9.197528607879002, "linea": "1", "URI": "http://comune.milano.it/resource/subwayStation/san_babila"}, {"nome": "S.AMBROGIO", "lat": 45.46162390103256, "long": 9.173168007888199, "linea": "2", "URI": "http://comune.milano.it/resource/subwayStation/sambrogio"}, {"nome": "S.AGOSTINO", "lat": 45.458620101033084, "long": 9.16981440788915, "linea": "2", "URI": "http://comune.milano.it/resource/subwayStation/sagostino"}, {"nome": "ROVERETO", "lat": 45.49553310102617, "long": 9.21950580787399, "linea": "1", "URI": "http://comune.milano.it/resource/subwayStation/rovereto"}, {"nome": "ROMOLO", "lat": 45.443733301034555, "long": 9.167676807888038, "linea": "2", "URI": "http://comune.milano.it/resource/subwayStation/romolo"}, {"nome": "ROGOREDO FS", "lat": 45.43358620103042, "long": 9.238089107858249, "linea": "3", "URI": "http://comune.milano.it/resource/subwayStation/rogoredo_fs"}, {"nome": "RHO FIERAMILANO", "lat": 45.51983980103358, "long": 9.087107307930722, "linea": "1", "URI": "http://comune.milano.it/resource/subwayStation/rho_fieramilano"}, {"nome": "REPUBBLICA", "lat": 45.48008960102905, "long": 9.198856407880275, "linea": "3", "URI": "http://comune.milano.it/resource/subwayStation/repubblica"}, {"nome": "ZARA", "lat": 45.48595810103299, "long": 9.137182307905976, "linea": "1", "URI": "http://comune.milano.it/resource/subwayStation/zara_4"}, {"nome": "P.TA VENEZIA", "lat": 45.47441870102913, "long": 9.20504640787702, "linea": "1", "URI": "http://comune.milano.it/resource/subwayStation/pta_venezia"}, {"nome": "P.TA GENOVA F.S.", "lat": 45.452378201033675, "long": 9.169606107888411, "linea": "2", "URI": "http://comune.milano.it/resource/subwayStation/pta_genova_fs"}, {"nome": "PRIMATICCIO", "lat": 45.45941360103596, "long": 9.129259707905643, "linea": "1", "URI": "http://comune.milano.it/resource/subwayStation/primaticcio"}, {"nome": "PRECOTTO", "lat": 45.512029501024315, "long": 9.22449910787417, "linea": "1", "URI": "http://comune.milano.it/resource/subwayStation/precotto"}, {"nome": "PORTO DI MARE", "lat": 45.437127901030664, "long": 9.230311107861862, "linea": "3", "URI": "http://comune.milano.it/resource/subwayStation/porto_di_mare"}, {"nome": "PORTELLO", "lat": 45.48079954792554, "long": 9.151499440899116, "linea": "5", "URI": "http://comune.milano.it/resource/subwayStation/portello"}, {"nome": "PORTA ROMANA", "lat": 45.45143410103132, "long": 9.203400207874633, "linea": "3", "URI": "http://comune.milano.it/resource/subwayStation/porta_romana"}, {"nome": "ROMOLO", "lat": 45.52199450102447, "long": 9.209473607881565, "linea": "5", "URI": "http://comune.milano.it/resource/subwayStation/romolo_1"}, {"nome": "ZARA", "lat": 45.48114500102702, "long": 9.225916807869481, "linea": "2", "URI": "http://comune.milano.it/resource/subwayStation/zara_5"}, {"nome": "ZARA", "lat": 45.50879970103467, "long": 9.085806707929775, "linea": "1", "URI": "http://comune.milano.it/resource/subwayStation/zara_6"}, {"nome": "WAGNER", "lat": 45.49106920102666, "long": 9.218180107873929, "linea": "1", "URI": "http://comune.milano.it/resource/subwayStation/wagner_2"}, {"nome": "PALESTRO", "lat": 45.47142500102961, "long": 9.20194900787787, "linea": "1", "URI": "http://comune.milano.it/resource/subwayStation/palestro"}, {"nome": "DERGANO", "lat": 45.46828080103287, "long": 9.161095207893961, "linea": "1", "URI": "http://comune.milano.it/resource/subwayStation/dergano"}, {"nome": "MOSCOVA", "lat": 45.47743950103035, "long": 9.184475707885735, "linea": "2", "URI": "http://comune.milano.it/resource/subwayStation/moscova"}, {"nome": "MONUMENTALE", "lat": 45.48481477633973, "long": 9.179793124404807, "linea": "5", "URI": "http://comune.milano.it/resource/subwayStation/monumentale"}, {"nome": "MONTENAPOLEONE", "lat": 45.470005501030386, "long": 9.19284790788136, "linea": "3", "URI": "http://comune.milano.it/resource/subwayStation/montenapoleone"}, {"nome": "MOLINO DORINO", "lat": 45.50521160103447, "long": 9.0929661079264, "linea": "1", "URI": "http://comune.milano.it/resource/subwayStation/molino_dorino"}, {"nome": "MOSCOVA", "lat": 45.46010860103157, "long": 9.189027107881591, "linea": "3", "URI": "http://comune.milano.it/resource/subwayStation/moscova_1"}, {"nome": "ZARA", "lat": 45.496145601027884, "long": 9.19482360788404, "linea": "5", "URI": "http://comune.milano.it/resource/subwayStation/zara_7"}, {"nome": "MACIACHINI", "lat": 45.49770170102845, "long": 9.1850425078882, "linea": "3", "URI": "http://comune.milano.it/resource/subwayStation/maciachini"}, {"nome": "LOTTO M5", "lat": 45.47978187279056, "long": 9.143668721517452, "linea": "5", "URI": "http://comune.milano.it/resource/subwayStation/lotto_m5"}, {"nome": "LOTTO FIERAMILANOCITY", "lat": 45.479145401033136, "long": 9.143748807902412, "linea": "1", "URI": "http://comune.milano.it/resource/subwayStation/lotto_fieramilanocity"}, {"nome": "LOTTO M5", "lat": 45.48459430102747, "long": 9.215166007874288, "linea": "2", "URI": "http://comune.milano.it/resource/subwayStation/lotto_m5_1"}, {"nome": "LOTTO M5", "lat": 45.486240110985705, "long": 9.216981578369202, "linea": "1", "URI": "http://comune.milano.it/resource/subwayStation/lotto_m5_2"}, {"nome": "LODI T.I.B.B.", "lat": 45.44676360103117, "long": 9.210816407871011, "linea": "3", "URI": "http://comune.milano.it/resource/subwayStation/lodi_tibb"}, {"nome": "ZARA", "lat": 45.48034590102817, "long": 9.210982707875413, "linea": "1", "URI": "http://comune.milano.it/resource/subwayStation/zara_8"}, {"nome": "ZARA", "lat": 45.472229501030945, "long": 9.18254810788582, "linea": "2", "URI": "http://comune.milano.it/resource/subwayStation/zara_9"}, {"nome": "LAMPUGNANO", "lat": 45.48940170103338, "long": 9.127319207910416, "linea": "1", "URI": "http://comune.milano.it/resource/subwayStation/lampugnano"}, {"nome": "LAMBRATE FS", "lat": 45.4842475010261, "long": 9.234829807866294, "linea": "2", "URI": "http://comune.milano.it/resource/subwayStation/lambrate_fs"}, {"nome": "ZARA", "lat": 45.501626201027186, "long": 9.197920007883518, "linea": "5", "URI": "http://comune.milano.it/resource/subwayStation/zara_10"}, {"nome": "ZARA", "lat": 45.48760830102892, "long": 9.191263407884342, "linea": "5", "URI": "http://comune.milano.it/resource/subwayStation/zara_11"}, {"nome": "INGANNI", "lat": 45.45756300103666, "long": 9.122262907908226, "linea": "1", "URI": "http://comune.milano.it/resource/subwayStation/inganni"}, {"nome": "ZARA", "lat": 45.50673430102494, "long": 9.222738807874173, "linea": "1", "URI": "http://comune.milano.it/resource/subwayStation/zara_12"}, {"nome": "GORGONZOLA", "lat": 45.53674100100932, "long": 9.403454107805153, "linea": "2", "URI": "http://comune.milano.it/resource/subwayStation/gorgonzola"}, {"nome": "ZARA", "lat": 45.48489990102891, "long": 9.194857407882534, "linea": "2", "URI": "http://comune.milano.it/resource/subwayStation/zara_13"}, {"nome": "GESSATE", "lat": 45.54528723127597, "long": 9.436625130131508, "linea": "2", "URI": "http://comune.milano.it/resource/subwayStation/gessate"}, {"nome": "GERUSALEMME", "lat": 45.48452175220638, "long": 9.166777787248627, "linea": "5", "URI": "http://comune.milano.it/resource/subwayStation/gerusalemme"}, {"nome": "GARIBALDI FS", "lat": 45.48363970102961, "long": 9.186742407885646, "linea": "2", "URI": "http://comune.milano.it/resource/subwayStation/garibaldi_fs"}, {"nome": "GARIBALDI FS", "lat": 45.48363970102961, "long": 9.186742407885646, "linea": "5", "URI": "http://comune.milano.it/resource/subwayStation/garibaldi_fs_1"}, {"nome": "ZARA", "lat": 45.46489630103445, "long": 9.143028007900806, "linea": "1", "URI": "http://comune.milano.it/resource/subwayStation/zara_14"}, {"nome": "FAMAGOSTA", "lat": 45.43689500103518, "long": 9.168012607886999, "linea": "2", "URI": "http://comune.milano.it/resource/subwayStation/famagosta"}, {"nome": "DUOMO M3", "lat": 45.46390371771966, "long": 9.188611010053185, "linea": "3", "URI": "http://comune.milano.it/resource/subwayStation/duomo_m3"}, {"nome": "DUOMO M3", "lat": 45.46462205639821, "long": 9.189596064235388, "linea": "1", "URI": "http://comune.milano.it/resource/subwayStation/duomo_m3_1"}, {"nome": "DOMODOSSOLA", "lat": 45.48161902612322, "long": 9.16226040292661, "linea": "5", "URI": "http://comune.milano.it/resource/subwayStation/domodossola"}, {"nome": "DERGANO", "lat": 45.505537001028145, "long": 9.179603107891445, "linea": "3", "URI": "http://comune.milano.it/resource/subwayStation/dergano_1"}, {"nome": "DE ANGELI", "lat": 45.466430601033856, "long": 9.149565807898375, "linea": "1", "URI": "http://comune.milano.it/resource/subwayStation/de_angeli"}, {"nome": "PRECOTTO", "lat": 45.456550801031455, "long": 9.195103407878662, "linea": "3", "URI": "http://comune.milano.it/resource/subwayStation/precotto_1"}, {"nome": "CRESCENZAGO", "lat": 45.50525440102323, "long": 9.248193307863687, "linea": "2", "URI": "http://comune.milano.it/resource/subwayStation/crescenzago"}, {"nome": "PORTELLO", "lat": 45.440410901030866, "long": 9.223469507865063, "linea": "3", "URI": "http://comune.milano.it/resource/subwayStation/portello_1"}, {"nome": "SONDRIO", "lat": 45.46553190103127, "long": 9.18623540788344, "linea": "1", "URI": "http://comune.milano.it/resource/subwayStation/sondrio_1"}, {"nome": "CONCILIAZIONE", "lat": 45.46753410103253, "long": 9.16648700789168, "linea": "1", "URI": "http://comune.milano.it/resource/subwayStation/conciliazione"}, {"nome": "COMASINA", "lat": 45.52813260102725, "long": 9.163729107900874, "linea": "3", "URI": "http://comune.milano.it/resource/subwayStation/comasina"}, {"nome": "COLOGNO SUD", "lat": 45.52021310101994, "long": 9.274927107854877, "linea": "2", "URI": "http://comune.milano.it/resource/subwayStation/cologno_sud"}, {"nome": "COLOGNO SUD", "lat": 45.53430280101753, "long": 9.291094107850226, "linea": "2", "URI": "http://comune.milano.it/resource/subwayStation/cologno_sud_1"}, {"nome": "COLOGNO CENTRO", "lat": 45.527478201018724, "long": 9.282964207852595, "linea": "2", "URI": "http://comune.milano.it/resource/subwayStation/cologno_centro"}, {"nome": "DERGANO", "lat": 45.5000415010242, "long": 9.241425707865732, "linea": "2", "URI": "http://comune.milano.it/resource/subwayStation/dergano_2"}, {"nome": "CERNUSCO SUL NAVIGLIO", "lat": 45.521069011199316, "long": 9.331377713029685, "linea": "2", "URI": "http://comune.milano.it/resource/subwayStation/cernusco_sul_naviglio"}, {"nome": "CENTRALE FS", "lat": 45.484439701028414, "long": 9.202612807879335, "linea": "2", "URI": "http://comune.milano.it/resource/subwayStation/centrale_fs"}, {"nome": "CENTRALE FS", "lat": 45.484439701028414, "long": 9.202612807879335, "linea": "3", "URI": "http://comune.milano.it/resource/subwayStation/centrale_fs_1"}, {"nome": "SONDRIO", "lat": 45.487490000608666, "long": 9.171946839180348, "linea": "5", "URI": "http://comune.milano.it/resource/subwayStation/sondrio_2"}, {"nome": "CASSINA DE PECCHI", "lat": 45.521864033702954, "long": 9.363121602131166, "linea": "2", "URI": "http://comune.milano.it/resource/subwayStation/cassina_de_pecchi"}, {"nome": "CASCINA GOBBA", "lat": 45.51144240102178, "long": 9.260510207859536, "linea": "2", "URI": "http://comune.milano.it/resource/subwayStation/cascina_gobba"}, {"nome": "CASCINA BURRONA", "lat": 45.51736435688754, "long": 9.297835424210906, "linea": "2", "URI": "http://comune.milano.it/resource/subwayStation/cascina_burrona"}, {"nome": "CASCINA ANTONIETTA", "lat": 45.542079477549514, "long": 9.423500191490108, "linea": "2", "URI": "http://comune.milano.it/resource/subwayStation/cascina_antonietta"}, {"nome": "CAIROLI", "lat": 45.468367201031334, "long": 9.182025007885516, "linea": "1", "URI": "http://comune.milano.it/resource/subwayStation/cairoli"}, {"nome": "CAIROLI", "lat": 45.48531820102785, "long": 9.209409407876711, "linea": "2", "URI": "http://comune.milano.it/resource/subwayStation/cairoli_1"}, {"nome": "CA GRANDA", "lat": 45.507242501026454, "long": 9.201110307882976, "linea": "5", "URI": "http://comune.milano.it/resource/subwayStation/ca_granda"}, {"nome": "CADORNA FN M2", "lat": 45.46815510103172, "long": 9.177102407887476, "linea": "2", "URI": "http://comune.milano.it/resource/subwayStation/cadorna_fn_m2"}, {"nome": "CADORNA FN M2", "lat": 45.46819530103174, "long": 9.176426307887759, "linea": "1", "URI": "http://comune.milano.it/resource/subwayStation/cadorna_fn_m2_1"}, {"nome": "BUSSERO", "lat": 45.525301662545225, "long": 9.375896921658327, "linea": "2", "URI": "http://comune.milano.it/resource/subwayStation/bussero"}, {"nome": "BUONARROTI", "lat": 45.47040200103309, "long": 9.15529230789659, "linea": "1", "URI": "http://comune.milano.it/resource/subwayStation/buonarroti"}, {"nome": "SEGESTA", "lat": 45.442810701030986, "long": 9.218481407867397, "linea": "3", "URI": "http://comune.milano.it/resource/subwayStation/segesta_1"}, {"nome": "ROMOLO", "lat": 45.49700260103394, "long": 9.11014780791837, "linea": "1", "URI": "http://comune.milano.it/resource/subwayStation/romolo_2"}, {"nome": "BISCEGLIE", "lat": 45.455380401037516, "long": 9.11292550791171, "linea": "1", "URI": "http://comune.milano.it/resource/subwayStation/bisceglie"}, {"nome": "BIGNAMI", "lat": 45.52678420102389, "long": 9.212180507881111, "linea": "5", "URI": "http://comune.milano.it/resource/subwayStation/bignami"}, {"nome": "BICOCCA", "lat": 45.51473390102549, "long": 9.20536990788226, "linea": "5", "URI": "http://comune.milano.it/resource/subwayStation/bicocca"}, {"nome": "BANDE NERE", "lat": 45.46150400103524, "long": 9.136484507903, "linea": "1", "URI": "http://comune.milano.it/resource/subwayStation/bande_nere"}, {"nome": "ASSAGO MILANOFIORI NORD", "lat": 45.40945450103896, "long": 9.150046307890616, "linea": "2", "URI": "http://comune.milano.it/resource/subwayStation/assago_milanofiori_nord"}, {"nome": "ASSAGO MILANOFIORI NORD", "lat": 45.40174850103996, "long": 9.145538807891409, "linea": "2", "URI": "http://comune.milano.it/resource/subwayStation/assago_milanofiori_nord_1"}, {"nome": "AMENDOLA", "lat": 45.47367890103308, "long": 9.150969307898771, "linea": "1", "URI": "http://comune.milano.it/resource/subwayStation/amendola"}, {"nome": "AFFORI FN", "lat": 45.52168180102753, "long": 9.168251607898183, "linea": "3", "URI": "http://comune.milano.it/resource/subwayStation/affori_fn"}, {"nome": "AFFORI CENTRO", "lat": 45.51355430102783, "long": 9.173979907894779, "linea": "3", "URI": "http://comune.milano.it/resource/subwayStation/affori_centro"}, {"nome": "ABBIATEGRASSO", "lat": 45.429994901035116, "long": 9.177322807882318, "linea": "2", "URI": "http://comune.milano.it/resource/subwayStation/abbiategrasso"}]