[{"nome": "Carsharing Milano, Tibaldi, Via Pietro Pomponazzi, Quartiere Stadera, Chiesa Rossa, Milano, MI, LOM, 20136, Italia", "operatore": "Carsharing Milano", "indirizzo": "Tibaldi, Via Pietro Pomponazzi, Quartiere Stadera, Chiesa Rossa, Milano, MI, LOM, 20136, Italia", "lat": 45.438561, "long": 9.1818061, "URI": "http://comune.milano.it/resource/carSharing/carsharing_milano_tibaldi_via_pietro_pomponazzi_quartiere_stadera_chiesa_rossa_milano_mi_lom_20136_italia"}, {"nome": "e-vai, Derganino, Municipio 9, Milano, MI, LOM, Italia", "operatore": "e-vai", "indirizzo": "Derganino, Municipio 9, Milano, MI, LOM, Italia", "lat": 45.5020581, "long": 9.1596153, "URI": "http://comune.milano.it/resource/carSharing/e_vai_derganino_municipio_9_milano_mi_lom_italia"}, {"nome": "GuidaMi, Citt\u00e0 Studi, Via Giovanni Celoria, Citt\u00e0 Studi, Milano, MI, LOM, 20133, Italia", "operatore": "GuidaMi", "indirizzo": "Citt\u00e0 Studi, Via Giovanni Celoria, Citt\u00e0 Studi, Milano, MI, LOM, 20133, Italia", "lat": 45.4768008, "long": 9.2262483, "URI": "http://comune.milano.it/resource/carSharing/guidami_citta_studi_via_giovanni_celoria_citta_studi_milano_mi_lom_20133_italia"}, {"nome": "GuidaMi, Viale Andrea Doria, Loreto, Milano, MI, LOM, 2014, Italia", "operatore": "GuidaMi", "indirizzo": "GuidaMi, Viale Andrea Doria, Loreto, Milano, MI, LOM, 2014, Italia", "lat": 45.486178, "long": 9.2152697, "URI": "http://comune.milano.it/resource/carSharing/guidami_viale_andrea_doria_loreto_milano_mi_lom_2014_italia"}, {"nome": "Enjoy, Piazza Primo Maggio, Baraggia, Sesto San Giovanni, MI, LOM, 20099, Italia", "operatore": "Enjoy", "indirizzo": "Enjoy, Piazza Primo Maggio, Baraggia, Sesto San Giovanni, MI, LOM, 20099, Italia", "lat": 45.5411315, "long": 9.2386318, "URI": "http://comune.milano.it/resource/carSharing/enjoy_piazza_primo_maggio_baraggia_sesto_san_giovanni_mi_lom_20099_italia"}, {"nome": "Share'ngo, Enjoy, Piazza Primo Maggio, Baraggia, Sesto San Giovanni, MI, LOM, 20099, Italia", "operatore": "Share'ngo", "indirizzo": "Enjoy, Piazza Primo Maggio, Baraggia, Sesto San Giovanni, MI, LOM, 20099, Italia", "lat": 45.5411315, "long": 9.2386318, "URI": "http://comune.milano.it/resource/carSharing/sharengo_enjoy_piazza_primo_maggio_baraggia_sesto_san_giovanni_mi_lom_20099_italia"}, {"nome": "Carsharing Milano, Tibaldi, Via Pietro Pomponazzi, Quartiere Stadera, Chiesa Rossa, Milano, MI, LOM, 20136, Italia", "operatore": "Carsharing Milano", "indirizzo": "Tibaldi, Via Pietro Pomponazzi, Quartiere Stadera, Chiesa Rossa, Milano, MI, LOM, 20136, Italia", "lat": 45.438561, "long": 9.1818061, "URI": "http://comune.milano.it/resource/carSharing/carsharing_milano_tibaldi_via_pietro_pomponazzi_quartiere_stadera_chiesa_rossa_milano_mi_lom_20136_italia_1"}, {"nome": "e-vai, Derganino, Municipio 9, Milano, MI, LOM, Italia", "operatore": "e-vai", "indirizzo": "Derganino, Municipio 9, Milano, MI, LOM, Italia", "lat": 45.5020581, "long": 9.1596153, "URI": "http://comune.milano.it/resource/carSharing/e_vai_derganino_municipio_9_milano_mi_lom_italia_1"}, {"nome": "GuidaMi, Citt\u00e0 Studi, Via Giovanni Celoria, Citt\u00e0 Studi, Milano, MI, LOM, 20133, Italia", "operatore": "GuidaMi", "indirizzo": "Citt\u00e0 Studi, Via Giovanni Celoria, Citt\u00e0 Studi, Milano, MI, LOM, 20133, Italia", "lat": 45.4768008, "long": 9.2262483, "URI": "http://comune.milano.it/resource/carSharing/guidami_citta_studi_via_giovanni_celoria_citta_studi_milano_mi_lom_20133_italia_1"}, {"nome": "GuidaMi, Viale Andrea Doria, Loreto, Milano, MI, LOM, 2014, Italia", "operatore": "GuidaMi", "indirizzo": "GuidaMi, Viale Andrea Doria, Loreto, Milano, MI, LOM, 2014, Italia", "lat": 45.486178, "long": 9.2152697, "URI": "http://comune.milano.it/resource/carSharing/guidami_viale_andrea_doria_loreto_milano_mi_lom_2014_italia_1"}, {"nome": "Enjoy, Piazza Primo Maggio, Baraggia, Sesto San Giovanni, MI, LOM, 20099, Italia", "operatore": "Enjoy", "indirizzo": "Enjoy, Piazza Primo Maggio, Baraggia, Sesto San Giovanni, MI, LOM, 20099, Italia", "lat": 45.5411315, "long": 9.2386318, "URI": "http://comune.milano.it/resource/carSharing/enjoy_piazza_primo_maggio_baraggia_sesto_san_giovanni_mi_lom_20099_italia_1"}, {"nome": "Share'ngo, Enjoy, Piazza Primo Maggio, Baraggia, Sesto San Giovanni, MI, LOM, 20099, Italia", "operatore": "Share'ngo", "indirizzo": "Enjoy, Piazza Primo Maggio, Baraggia, Sesto San Giovanni, MI, LOM, 20099, Italia", "lat": 45.5411315, "long": 9.2386318, "URI": "http://comune.milano.it/resource/carSharing/sharengo_enjoy_piazza_primo_maggio_baraggia_sesto_san_giovanni_mi_lom_20099_italia_1"}]