{"type": "FeatureCollection", "features": [{"type": "Feature", "id": 29978508, "geometry": {"type": "Point", "coordinates": [9.1544733, 45.4613015]}, "properties": {"amenity": "restaurant", "created_by": "JOSM", "name": "La Brasserie de Milan"}}, {"type": "Feature", "id": 91533563, "geometry": {"type": "Point", "coordinates": [9.1752771, 45.4604288]}, "properties": {"amenity": "restaurant", "fixme": "posizione", "name": "Ancora"}}, {"type": "Feature", "id": 258076664, "geometry": {"type": "Point", "coordinates": [9.1653266, 45.4885485]}, "properties": {"amenity": "restaurant", "cuisine": "italian;pizza", "name": "La Mela Bianca"}}, {"type": "Feature", "id": 260349649, "geometry": {"type": "Point", "coordinates": [9.2391165, 45.4910123]}, "properties": {"amenity": "restaurant"}}, {"type": "Feature", "id": 260349669, "geometry": {"type": "Point", "coordinates": [9.2444453, 45.4912404]}, "properties": {"amenity": "restaurant", "created_by": "JOSM", "name": "NU"}}, {"type": "Feature", "id": 267033956, "geometry": {"type": "Point", "coordinates": [9.221509, 45.4944919]}, "properties": {"addr:city": "Milano", "addr:country": "IT", "addr:housenumber": "1", "addr:postcode": "20127", "addr:street": "Via Rovereto", "amenity": "restaurant", "cuisine": "pizza", "name": "Da Marco"}}, {"type": "Feature", "id": 268287384, "geometry": {"type": "Point", "coordinates": [9.1398143, 45.4276655]}, "properties": {"amenity": "restaurant", "name": "Trattoria Toscana"}}, {"type": "Feature", "id": 269925843, "geometry": {"type": "Point", "coordinates": [9.1842604, 45.4785976]}, "properties": {"addr:city": "Milano", "addr:country": "IT", "addr:housenumber": "3", "addr:postcode": "20121", "addr:street": "Via Alessandro Volta", "amenity": "restaurant", "email": "info@voltastreet.it", "name": "Volta Street", "phone": "+39 02 39669373", "website": "http://www.voltastreet.it/"}}, {"type": "Feature", "id": 270728678, "geometry": {"type": "Point", "coordinates": [9.1840833, 45.4776579]}, "properties": {"amenity": "restaurant", "created_by": "Potlatch 0.9c", "name": "Oracle"}}, {"type": "Feature", "id": 270728686, "geometry": {"type": "Point", "coordinates": [9.1842627, 45.4782108]}, "properties": {"addr:city": "Milano", "addr:country": "IT", "addr:housenumber": "1", "addr:postcode": "20121", "addr:street": "Largo La Foppa", "amenity": "restaurant", "cuisine": "japanese;brazilian", "name": "Bomaki", "opening_hours": "Mo-Su 12:30-14:30,19:30-23:30", "phone": "+39 02 39663308"}}, {"type": "Feature", "id": 272867896, "geometry": {"type": "Point", "coordinates": [9.1554107, 45.464983]}, "properties": {"amenity": "restaurant", "cuisine": "kosher", "name": "Denzel"}}, {"type": "Feature", "id": 272869297, "geometry": {"type": "Point", "coordinates": [9.1564997, 45.4600738]}, "properties": {"addr:city": "Milano", "addr:country": "IT", "addr:housenumber": "16", "addr:street": "Via Giacomo Boni", "amenity": "restaurant", "cuisine": "pugliese", "fax": "+39 02 48517616", "name": "Ai Muciaccia", "outdoor_seating": "yes", "phone": "+39 02 4800 0917"}}, {"type": "Feature", "id": 272871029, "geometry": {"type": "Point", "coordinates": [9.157709, 45.4626252]}, "properties": {"amenity": "restaurant"}}, {"type": "Feature", "id": 279123920, "geometry": {"type": "Point", "coordinates": [9.1551486, 45.4429473]}, "properties": {"amenity": "restaurant", "cuisine": "chicken, hamburger, pizza", "name": "Chicken House"}}, {"type": "Feature", "id": 279125323, "geometry": {"type": "Point", "coordinates": [9.1544807, 45.4472829]}, "properties": {"amenity": "restaurant", "created_by": "Potlatch 0.10f", "cuisine": "italian", "name": "Nicola Cavallaro"}}, {"type": "Feature", "id": 281819160, "geometry": {"type": "Point", "coordinates": [9.1966345, 45.4887909]}, "properties": {"addr:city": "Milano", "addr:country": "IT", "addr:housenumber": "20", "addr:postcode": "20124", "addr:street": "Via Francesco Algarotti", "amenity": "restaurant", "cuisine": "regional", "email": "info@daberti.it", "name": "Da Berti", "phone": "+39 02 6694627", "website": "http://www.daberti.it/"}}, {"type": "Feature", "id": 281819163, "geometry": {"type": "Point", "coordinates": [9.1985901, 45.4938118]}, "properties": {"addr:city": "Milano", "addr:country": "IT", "addr:housenumber": "5", "addr:street": "Piazza Carbonari", "amenity": "restaurant", "name": "Trattoria Casa Fontana - 23 risotti", "website": "http://www.23risotti.it/"}}, {"type": "Feature", "id": 281828190, "geometry": {"type": "Point", "coordinates": [9.2077107, 45.5144784]}, "properties": {"amenity": "restaurant", "cuisine": "hamurger", "source": "survey"}}, {"type": "Feature", "id": 282472015, "geometry": {"type": "Point", "coordinates": [9.2270264, 45.5283647]}, "properties": {"addr:city": "Sesto San Giovanni", "addr:country": "IT", "addr:housenumber": "75", "addr:postcode": "20099", "addr:street": "Via Renzo Del Riccio", "amenity": "restaurant", "email": "info@osteriadelriccio.it", "name": "Osteria del Riccio", "opening_hours": "Mo 19:30-24:00; Tu-Sa 12:30-15:00,19:30-24:00; Su 12:30-15:00", "phone": "+39 02 26220328", "website": "http://www.osteriadelriccio.it/principale.htm"}}, {"type": "Feature", "id": 282549040, "geometry": {"type": "Point", "coordinates": [9.1959957, 45.4944891]}, "properties": {"addr:city": "Milano", "addr:country": "IT", "addr:housenumber": "70", "addr:postcode": "20124", "addr:street": "Via Torquato Taramelli", "amenity": "restaurant", "cuisine": "seafood", "email": "info@ristoranteariccione.com", "name": "a Riccione", "phone": "+39 02 683807", "website": "https://www.ristoranteariccione.net/"}}, {"type": "Feature", "id": 298986524, "geometry": {"type": "Point", "coordinates": [9.1892849, 45.4786671]}, "properties": {"addr:city": "Milano", "addr:country": "IT", "addr:housenumber": "7", "addr:postcode": "20121", "addr:street": "Via Castelfidardo", "amenity": "restaurant", "cuisine": "italian", "name": "Daniel", "phone": "+39 02 63793837", "website": "http://www.danielcanzian.it/"}}, {"type": "Feature", "id": 301979318, "geometry": {"type": "Point", "coordinates": [9.1752912, 45.4520568]}, "properties": {"amenity": "restaurant", "cuisine": "pizza", "name": "Officina 12"}}, {"type": "Feature", "id": 301979351, "geometry": {"type": "Point", "coordinates": [9.169278, 45.4507682]}, "properties": {"addr:city": "Milano", "addr:country": "IT", "addr:housenumber": "68", "addr:street": "Alzaia Naviglio Grande", "amenity": "restaurant", "cuisine": "pizza", "name": "Fabbrica", "opening_hours": "Mo-Su 12:00-01:00", "phone": "+39 02 8358297"}}, {"type": "Feature", "id": 306597618, "geometry": {"type": "Point", "coordinates": [9.1358966, 45.4615335]}, "properties": {"amenity": "restaurant", "name": "Ristorante Pizzeria Bande Nere"}}, {"type": "Feature", "id": 309697691, "geometry": {"type": "Point", "coordinates": [9.168171, 45.4858994]}, "properties": {"addr:city": "Milano", "addr:country": "IT", "addr:housenumber": "67", "addr:postcode": "20154", "addr:street": "Via Paolo Lomazzo", "amenity": "restaurant", "description": "Cucina tipica dell'Alto Adige", "name": "Rifugio Delicatessen"}}, {"type": "Feature", "id": 309787189, "geometry": {"type": "Point", "coordinates": [9.2430698, 45.4708645]}, "properties": {"amenity": "restaurant", "microbrewery": "yes", "name": "Il Giardino della Birra"}}, {"type": "Feature", "id": 310987054, "geometry": {"type": "Point", "coordinates": [9.1917957, 45.5172346]}, "properties": {"amenity": "restaurant", "name": "Osteria Ambrosiana"}}, {"type": "Feature", "id": 311819224, "geometry": {"type": "Point", "coordinates": [9.1551322, 45.4502906]}, "properties": {"amenity": "restaurant", "name": "Blue Ginger"}}, {"type": "Feature", "id": 313322401, "geometry": {"type": "Point", "coordinates": [9.1366189, 45.4559089]}, "properties": {"amenity": "restaurant", "name": "Carmel"}}, {"type": "Feature", "id": 313368801, "geometry": {"type": "Point", "coordinates": [9.1384121, 45.4481943]}, "properties": {"amenity": "restaurant", "cuisine": "asian", "name": "Palayok - Cucina Filippina", "wheelchair": "no"}}, {"type": "Feature", "id": 318431243, "geometry": {"type": "Point", "coordinates": [9.1445164, 45.4451644]}, "properties": {"amenity": "restaurant", "name": "Lo Scoglio sul Naviglio", "source:name": "survey"}}, {"type": "Feature", "id": 318431245, "geometry": {"type": "Point", "coordinates": [9.1428846, 45.4448043]}, "properties": {"amenity": "restaurant", "cuisine": "spanish", "name": "Taberna Vasca"}}, {"type": "Feature", "id": 320363973, "geometry": {"type": "Point", "coordinates": [9.2159819, 45.4541489]}, "properties": {"addr:housenumber": "60", "addr:street": "Viale Umbria", "amenity": "restaurant", "cuisine": "pizza", "name": "Pizzeria Piccola Ischia"}}, {"type": "Feature", "id": 320384496, "geometry": {"type": "Point", "coordinates": [9.2056917, 45.4558756]}, "properties": {"amenity": "restaurant", "name": "Kapuziner", "wheelchair": "yes"}}, {"type": "Feature", "id": 322964433, "geometry": {"type": "Point", "coordinates": [9.1897692, 45.5521885]}, "properties": {"addr:city": "Cusano Milanino", "addr:country": "IT", "addr:housenumber": "23", "addr:postcode": "20095", "addr:street": "Viale Cooperazione", "amenity": "restaurant", "cuisine": "italian;pizza", "inscription": "Pizzeria forno a legna;Bube dal 1981;Ristorante carne alla griglia e pesce", "name": "Bube", "outdoor_seating": "yes"}}, {"type": "Feature", "id": 323092429, "geometry": {"type": "Point", "coordinates": [9.1859444, 45.5513156]}, "properties": {"addr:city": "Cusano Milanino", "addr:country": "IT", "addr:housenumber": "47", "addr:postcode": "20095", "addr:street": "Via Carlo Sormani", "amenity": "restaurant", "cuisine": "italian;pizza", "description": "Pizza, grill", "email": "itregradini@gmail.com", "name": "I Tre Gradini", "opening_hours": "We-Mo", "operator": "Madama Massimo Antonio", "phone": "+39 02 6196242"}}, {"type": "Feature", "id": 324180995, "geometry": {"type": "Point", "coordinates": [9.1776429, 45.5505092]}, "properties": {"amenity": "restaurant", "cafe": "yes", "cuisine": "regional", "description": "Albergo Bar Ristorante", "name": "Albergo Del Ponte", "stars": "2", "tourism": "hotel"}}, {"type": "Feature", "id": 324190556, "geometry": {"type": "Point", "coordinates": [9.175552, 45.5495784]}, "properties": {"amenity": "restaurant", "amenity:2": "bar", "cuisine": "pizza", "name": "Bar Cassis", "old_name": "Bar Jolly - Pizzeria dell'Angolo"}}, {"type": "Feature", "id": 324374873, "geometry": {"type": "Point", "coordinates": [9.1793647, 45.5499283]}, "properties": {"amenity": "restaurant", "cuisine": "pizza"}}, {"type": "Feature", "id": 324396165, "geometry": {"type": "Point", "coordinates": [9.1847705, 45.5507179]}, "properties": {"amenity": "restaurant", "cuisine": "italian", "name": "Osteria Armonie di Gusto"}}, {"type": "Feature", "id": 324400414, "geometry": {"type": "Point", "coordinates": [9.1871027, 45.5513567]}, "properties": {"addr:city": "Cusano Milanino", "addr:country": "IT", "addr:housenumber": "8", "addr:postcode": "20095", "addr:street": "Viale Cooperazione", "amenity": "restaurant", "cuisine": "pizza", "description": "pizzeria ristorante griglieria", "name": "Il Cerchio"}}, {"type": "Feature", "id": 332791098, "geometry": {"type": "Point", "coordinates": [9.1810299, 45.5506644]}, "properties": {"amenity": "restaurant", "cuisine": "italian", "name": "Ristorante Il Localino"}}, {"type": "Feature", "id": 338432050, "geometry": {"type": "Point", "coordinates": [9.1863002, 45.552767]}, "properties": {"addr:city": "Cusano Milanino", "addr:country": "IT", "addr:housenumber": "2", "addr:postcode": "20095", "addr:street": "Via Ginestra", "amenity": "restaurant", "cuisine": "pizza", "email": "pizzeria@anacapri.mi.it", "name": "Pizzeria Anacapri", "opening_hours": "Tu-Fr 12:00-14:00,18:00-21:30; Sa-Su 18:00-21:30; PH 18:00-21:30", "phone": "+39 02 6194650", "website": "http://www.anacapri.mi.it/index_file/Page387.htm"}}, {"type": "Feature", "id": 345363591, "geometry": {"type": "Point", "coordinates": [9.1555418, 45.4675712]}, "properties": {"amenity": "restaurant"}}, {"type": "Feature", "id": 348094438, "geometry": {"type": "Point", "coordinates": [9.1949435, 45.5501406]}, "properties": {"addr:city": "Cusano Milanino", "addr:country": "IT", "addr:housenumber": "18", "addr:postcode": "20095", "addr:street": "Viale Margherita", "amenity": "restaurant", "cuisine": "italian;pizza", "name": "Only Meat", "operator": "Giovannello", "outdoor_seating": "no", "takeaway": "yes"}}, {"type": "Feature", "id": 351965310, "geometry": {"type": "Point", "coordinates": [9.1859728, 45.5477467]}, "properties": {"addr:city": "Cusano Milanino", "addr:country": "IT", "addr:housenumber": "21", "addr:postcode": "20095", "addr:street": "Via Carlo Sormani", "amenity": "restaurant", "cuisine": "japanese", "description": "Ristorante Giapponese all you can eat", "name": "Kyoto", "old_name": "Il nuovo Gallo d'Oro", "phone": "+39 02 6192272", "website": "http://www.allyoucaneatcusanomilanino.mi.it/"}}, {"type": "Feature", "id": 352842634, "geometry": {"type": "Point", "coordinates": [9.1758329, 45.5453517]}, "properties": {"addr:city": "Cusano Milanino", "addr:street": "Via Sacco e Vanzetti", "amenity": "restaurant", "description": "solo a pranzo, esclusi i festivi", "name": "Mino Bistrot", "phone": "+39352842634"}}, {"type": "Feature", "id": 352873411, "geometry": {"type": "Point", "coordinates": [9.1761252, 45.5453884]}, "properties": {"amenity": "restaurant", "cuisine": "italian;pizza", "name": "Griglieria Pizzeria La Brace"}}, {"type": "Feature", "id": 355400284, "geometry": {"type": "Point", "coordinates": [9.1829179, 45.5497261]}, "properties": {"amenity": "restaurant", "name": "Al Circolino Ristorante Dancing Valle Chiara"}}, {"type": "Feature", "id": 358880160, "geometry": {"type": "Point", "coordinates": [9.1830352, 45.4888473]}, "properties": {"addr:city": "Milano", "addr:country": "IT", "addr:housenumber": "1/A", "addr:postcode": "20159", "addr:street": "Via Ugo Bassi", "amenity": "restaurant", "cuisine": "fusion", "email": "hashi@himilangaribaldi.com", "name": "Hashi", "phone": "+39 02 60768603", "website": "http://www.hashifusionrestaurant.com/"}}, {"type": "Feature", "id": 361527150, "geometry": {"type": "Point", "coordinates": [9.1764409, 45.5485794]}, "properties": {"addr:city": "Cusano Milanino", "addr:country": "IT", "addr:district": "Cusano", "amenity": "restaurant", "cuisine": "italian", "name": "Bar Osteria il Cafferino"}}, {"type": "Feature", "id": 368905369, "geometry": {"type": "Point", "coordinates": [9.2148935, 45.5518935]}, "properties": {"amenity": "restaurant", "cuisine": "pizza;ice_cream", "name": "Pizzeria Arcobaleno"}}, {"type": "Feature", "id": 370492015, "geometry": {"type": "Point", "coordinates": [9.1161113, 45.4431787]}, "properties": {"amenity": "restaurant", "name": "Zio Provolone"}}, {"type": "Feature", "id": 380370493, "geometry": {"type": "Point", "coordinates": [9.1509359, 45.4437737]}, "properties": {"addr:city": "Milano", "addr:housenumber": "32", "addr:postcode": "20143", "addr:street": "Via Giacomo Watt", "amenity": "restaurant", "name": "Titanic"}}, {"type": "Feature", "id": 408093964, "geometry": {"type": "Point", "coordinates": [9.1925821, 45.5239109]}, "properties": {"amenity": "restaurant", "cuisine": "pizza", "name": "San Giorgio"}}, {"type": "Feature", "id": 411817770, "geometry": {"type": "Point", "coordinates": [9.1860677, 45.4812546]}, "properties": {"addr:city": "Milano", "addr:country": "IT", "addr:housenumber": "2", "addr:street": "Viale Pasubio", "amenity": "restaurant", "cuisine": "pizza", "email": "fabbricapasubio@fastwebnet.it", "name": "La Fabbrica", "phone": "+39 02 6552771", "restaurant:type:it": "ristorante;pizzeria", "website": "http://www.lafabbricapizzeria.it/home.html"}}, {"type": "Feature", "id": 426661822, "geometry": {"type": "Point", "coordinates": [9.1534731, 45.4910015]}, "properties": {"amenity": "restaurant", "cuisine": "sushi", "name": "NihonKai"}}, {"type": "Feature", "id": 428788433, "geometry": {"type": "Point", "coordinates": [9.1543017, 45.454744]}, "properties": {"addr:city": "Milano", "addr:country": "IT", "addr:street": "Via Giorgio Washington", "amenity": "restaurant", "name": "Al Capriccio"}}, {"type": "Feature", "id": 428789313, "geometry": {"type": "Point", "coordinates": [9.1544022, 45.4587071]}, "properties": {"amenity": "restaurant", "name": "Self Service Roncaglia"}}, {"type": "Feature", "id": 429215844, "geometry": {"type": "Point", "coordinates": [9.1545814, 45.4524369]}, "properties": {"amenity": "restaurant", "cuisine": "pizza", "name": "Ferro di Cavallo"}}, {"type": "Feature", "id": 429422741, "geometry": {"type": "Point", "coordinates": [9.1841551, 45.4779672]}, "properties": {"addr:city": "Milano", "addr:country": "IT", "addr:housenumber": "1", "addr:postcode": "20121", "addr:street": "Largo La Foppa", "amenity": "restaurant", "cuisine": "pizza", "name": "Rossopomodoro"}}, {"type": "Feature", "id": 439221115, "geometry": {"type": "Point", "coordinates": [9.2028232, 45.4504362]}, "properties": {"addr:city": "Milano", "addr:country": "IT", "addr:housenumber": "3", "addr:street": "Via Crema", "amenity": "restaurant", "name": "Pomodorino"}}, {"type": "Feature", "id": 441968325, "geometry": {"type": "Point", "coordinates": [9.1698755, 45.4505654]}, "properties": {"addr:street": "Ripa di Porta Ticinese", "amenity": "restaurant", "cuisine": "italian", "name": "Steak House Navigli 66"}}, {"type": "Feature", "id": 442571840, "geometry": {"type": "Point", "coordinates": [9.2110082, 45.4489554]}, "properties": {"addr:city": "Milano", "addr:housenumber": "11", "addr:postcode": "20135", "addr:street": "Viale Umbria", "amenity": "restaurant", "cuisine": "pizza", "delivery": "no", "name": "Pepe Nero", "smoking": "no", "website": "www.pepeneromilano.it"}}, {"type": "Feature", "id": 444759180, "geometry": {"type": "Point", "coordinates": [9.2258294, 45.517042]}, "properties": {"addr:city": "Milano", "addr:country": "IT", "addr:housenumber": "311", "addr:postcode": "20126", "addr:street": "Viale Monza", "amenity": "restaurant", "cuisine": "fusion", "email": "info@bontasushi.it", "name": "Bont\u00e0 Sushi", "opening_hours": "Mo-Su 12:00-15:00,18:30-23:30", "phone": "+39 02 2576387", "website": "http://www.bontasushi.it/"}}, {"type": "Feature", "id": 446783492, "geometry": {"type": "Point", "coordinates": [9.223294, 45.499762]}, "properties": {"addr:city": "Milano", "addr:postcode": "20127", "addr:street": "Via Matteo Maria Boiardo", "amenity": "restaurant", "name": "Vecchio Aratro"}}, {"type": "Feature", "id": 452491620, "geometry": {"type": "Point", "coordinates": [9.1552532, 45.4405918]}, "properties": {"addr:housenumber": "46", "addr:street": "Via Bonaventura Zumbini", "amenity": "restaurant", "cuisine": "italian;pizza;regional", "name": "Carmen 2", "opening_hours": "Mo-Su 12:00-14:00,19:30-23:00; Tu off", "operator": "C. 2 S.R.L.", "phone": "+39 02 89122085", "ref:vatin": "IT10685000159", "smoking": "isolated"}}, {"type": "Feature", "id": 464814775, "geometry": {"type": "Point", "coordinates": [9.1541822, 45.4395888]}, "properties": {"amenity": "restaurant", "cuisine": "italian", "name": "La Magolfa 3"}}, {"type": "Feature", "id": 477275305, "geometry": {"type": "Point", "coordinates": [9.1832599, 45.4424342]}, "properties": {"addr:city": "Milano", "addr:housenumber": "11", "addr:postcode": "20141", "addr:street": "Via Giovanni Pezzotti", "amenity": "restaurant", "name": "La Darsena 2 - Ristorante Pizzeria", "opening_hours": "Mo-Su 10:00-15:00, 18:00-01:00", "outdoor_seating": "no"}}, {"type": "Feature", "id": 477277646, "geometry": {"type": "Point", "coordinates": [9.1786974, 45.4403736]}, "properties": {"addr:city": "Milano", "addr:housenumber": "43", "addr:postcode": "20141", "addr:street": "Via Giuseppe Meda", "amenity": "restaurant", "cuisine": "pizza", "email": "tuttanatastoria.pizzeria@gmail.com", "name": "Tutta 'Nata Storia", "opening_hours": "Mo-Su 12:00-15:30,19:00-00:00; ", "outdoor_seating": "no", "phone": "+39 02 8464137", "takeaway": "yes"}}, {"type": "Feature", "id": 477277648, "geometry": {"type": "Point", "coordinates": [9.1787564, 45.4400513]}, "properties": {"amenity": "restaurant"}}, {"type": "Feature", "id": 493674599, "geometry": {"type": "Point", "coordinates": [9.2948572, 45.4990381]}, "properties": {"amenity": "restaurant", "name": "La Piazzetta"}}, {"type": "Feature", "id": 493674604, "geometry": {"type": "Point", "coordinates": [9.2933469, 45.4996731]}, "properties": {"amenity": "restaurant", "name": "Pizzeria"}}, {"type": "Feature", "id": 506110359, "geometry": {"type": "Point", "coordinates": [9.1800203, 45.4437363]}, "properties": {"amenity": "restaurant", "cuisine": "chinese", "name": "Sole d'oriente"}}, {"type": "Feature", "id": 506111041, "geometry": {"type": "Point", "coordinates": [9.1809252, 45.4418867]}, "properties": {"amenity": "restaurant", "description": "Sushi", "name": "Konoka"}}, {"type": "Feature", "id": 506111322, "geometry": {"type": "Point", "coordinates": [9.1790333, 45.4415864]}, "properties": {"amenity": "restaurant", "cuisine": "sushi", "delivery": "yes", "description": "Sushi giapponese cinese", "name": "Ghenza"}}, {"type": "Feature", "id": 506112057, "geometry": {"type": "Point", "coordinates": [9.1801319, 45.4407975]}, "properties": {"addr:country": "IT", "addr:street": "Via Ruggero Bonghi", "amenity": "restaurant", "name": "Fico d'India"}}, {"type": "Feature", "id": 506112087, "geometry": {"type": "Point", "coordinates": [9.1801577, 45.4406169]}, "properties": {"addr:city": "Milano", "addr:country": "IT", "addr:housenumber": "12", "addr:street": "Via Ruggero Bonghi", "amenity": "restaurant", "name": "Il Paquito"}}, {"type": "Feature", "id": 506114582, "geometry": {"type": "Point", "coordinates": [9.1899965, 45.4511006]}, "properties": {"amenity": "restaurant", "description": "Pizzeria", "name": "Il Pizzino"}}, {"type": "Feature", "id": 538903511, "geometry": {"type": "Point", "coordinates": [9.17756, 45.4489995]}, "properties": {"amenity": "restaurant", "cuisine": "german", "name": "Kapuziner"}}, {"type": "Feature", "id": 540699241, "geometry": {"type": "Point", "coordinates": [9.111419, 45.527625]}, "properties": {"amenity": "restaurant", "name": "Pizzeria Pirata"}}, {"type": "Feature", "id": 540813347, "geometry": {"type": "Point", "coordinates": [9.159562, 45.4867737]}, "properties": {"amenity": "restaurant", "cuisine": "japanese"}}, {"type": "Feature", "id": 540813358, "geometry": {"type": "Point", "coordinates": [9.1609476, 45.4850275]}, "properties": {"amenity": "restaurant"}}, {"type": "Feature", "id": 540813361, "geometry": {"type": "Point", "coordinates": [9.1596515, 45.4859964]}, "properties": {"amenity": "restaurant", "cuisine": "indian", "name": "Indrani"}}, {"type": "Feature", "id": 540813366, "geometry": {"type": "Point", "coordinates": [9.1617124, 45.4853363]}, "properties": {"amenity": "restaurant"}}, {"type": "Feature", "id": 540813377, "geometry": {"type": "Point", "coordinates": [9.1628726, 45.4846305]}, "properties": {"addr:city": "Milano", "addr:country": "IT", "addr:housenumber": "1", "addr:postcode": "20154", "addr:street": "Via privata Chieti", "amenity": "restaurant", "name": "Al Toscanaccio"}}, {"type": "Feature", "id": 540813379, "geometry": {"type": "Point", "coordinates": [9.1627584, 45.4855986]}, "properties": {"addr:city": "Milano", "addr:country": "IT", "addr:housenumber": "11", "addr:postcode": "20154", "addr:street": "Via Losanna", "amenity": "restaurant", "cuisine": "seafood", "name": "Positano", "phone": "+39 02 3319 946", "website": "http://www.positanodagaspare.com/"}}, {"type": "Feature", "id": 540813403, "geometry": {"type": "Point", "coordinates": [9.1658099, 45.4846164]}, "properties": {"addr:city": "Milano", "addr:country": "IT", "addr:housenumber": "8", "addr:postcode": "20154", "addr:street": "Via Giovanni Battista Fauche'", "amenity": "restaurant", "name": "Contro Vento", "phone": "+39 02 37920389", "website": "https://www.ristorantecontrovento.com/controvento/"}}, {"type": "Feature", "id": 540813427, "geometry": {"type": "Point", "coordinates": [9.16569, 45.4828365]}, "properties": {"amenity": "restaurant", "name": "Rong Lai"}}, {"type": "Feature", "id": 540813444, "geometry": {"type": "Point", "coordinates": [9.1642847, 45.4837794]}, "properties": {"addr:city": "Milano", "addr:country": "IT", "addr:housenumber": "34", "addr:postcode": "20154", "addr:street": "Via Piero della Francesca", "amenity": "restaurant", "cuisine": "seafood", "email": "info@ristorantelarosadeiventi.it", "name": "La Rosa dei Venti", "phone": "+39 02 347338", "website": "http://www.ristorantelarosadeiventi.it/"}}, {"type": "Feature", "id": 540813456, "geometry": {"type": "Point", "coordinates": [9.1644158, 45.4811153]}, "properties": {"addr:city": "Milano", "addr:country": "IT", "addr:housenumber": "41", "addr:postcode": "20145", "addr:street": "Corso Sempione", "amenity": "restaurant", "cuisine": "seafood", "name": "Anema e Cozze", "phone": "+39 02 3319260"}}, {"type": "Feature", "id": 540824133, "geometry": {"type": "Point", "coordinates": [9.1636918, 45.4816749]}, "properties": {"addr:city": "Milano", "addr:country": "IT", "addr:housenumber": "49", "addr:postcode": "20145", "addr:street": "Corso Sempione", "amenity": "restaurant", "cuisine": "seafood", "email": "info@ristoranteaquarius.com", "fax": "+39 02 3315093", "name": "Aquarius", "phone": "+39 02 3315093", "website": "http://www.ristoranteaquarius.com/home-1138.html"}}, {"type": "Feature", "id": 540824180, "geometry": {"type": "Point", "coordinates": [9.1622311, 45.4873939]}, "properties": {"amenity": "restaurant"}}, {"type": "Feature", "id": 540830202, "geometry": {"type": "Point", "coordinates": [9.1666905, 45.4827064]}, "properties": {"amenity": "restaurant", "name": "Little Italy"}}, {"type": "Feature", "id": 541015129, "geometry": {"type": "Point", "coordinates": [9.1321686, 45.5089583]}, "properties": {"amenity": "restaurant", "name": "Trattoria"}}, {"type": "Feature", "id": 541064040, "geometry": {"type": "Point", "coordinates": [9.1669741, 45.4849763]}, "properties": {"addr:city": "Milano", "addr:country": "IT", "addr:housenumber": "7", "addr:postcode": "20154", "addr:street": "Piazza Gerusalemme", "amenity": "restaurant", "email": "info@cucinainmilano.it", "name": "Cucina In", "phone": "+39 02 36745728", "website": "https://cucinainmilano.wordpress.com/"}}, {"type": "Feature", "id": 541064050, "geometry": {"type": "Point", "coordinates": [9.1672155, 45.4852204]}, "properties": {"addr:city": "Milano", "addr:country": "IT", "addr:housenumber": "1", "addr:postcode": "20154", "addr:street": "Via Fratelli Induno", "alt_name": "Tres Jolie", "amenity": "restaurant", "name": "3 Jolie"}}, {"type": "Feature", "id": 543404060, "geometry": {"type": "Point", "coordinates": [9.1558934, 45.4946248]}, "properties": {"addr:city": "Milano", "addr:housenumber": "5", "addr:street": "Via privata Mottarone", "amenity": "restaurant", "name": "Ristorante Brasile"}}, {"type": "Feature", "id": 544467080, "geometry": {"type": "Point", "coordinates": [9.1324343, 45.5087991]}, "properties": {"addr:city": "Milano", "addr:country": "IT", "addr:postcode": "20157", "amenity": "restaurant", "cuisine": "pizza", "name": "Pizzeria G&G", "phone": "+39 02 33200311"}}, {"type": "Feature", "id": 552807863, "geometry": {"type": "Point", "coordinates": [9.1724922, 45.5153719]}, "properties": {"amenity": "restaurant", "cuisine": "italian", "name": "AL 73"}}, {"type": "Feature", "id": 598600404, "geometry": {"type": "Point", "coordinates": [9.1714761, 45.4598362]}, "properties": {"addr:city": "Milano", "addr:country": "IT", "addr:housenumber": "31", "addr:postcode": "20123", "addr:street": "Via Ariberto", "amenity": "restaurant", "cuisine": "spanish", "email": "info@llevataps.it", "name": "Lleva Taps", "phone": "+39 02 58101105", "website": "http://www.llevataps.it/"}}, {"type": "Feature", "id": 611589434, "geometry": {"type": "Point", "coordinates": [9.1918941, 45.4508431]}, "properties": {"amenity": "restaurant", "name": "Amici Miei"}}, {"type": "Feature", "id": 613615044, "geometry": {"type": "Point", "coordinates": [9.2268128, 45.4724084]}, "properties": {"addr:housenumber": "42", "addr:postcode": "20133", "addr:street": "Via Giuseppe Colombo", "amenity": "restaurant", "cuisine": "fish", "name": "Charmant"}}, {"type": "Feature", "id": 614695439, "geometry": {"type": "Point", "coordinates": [9.229024, 45.4704552]}, "properties": {"amenity": "restaurant", "name": "Pizzeria Oceania"}}, {"type": "Feature", "id": 626841128, "geometry": {"type": "Point", "coordinates": [9.1869976, 45.4588892]}, "properties": {"addr:city": "Milano", "addr:country": "IT", "addr:housenumber": "8", "addr:postcode": "20123", "addr:street": "Via Amedei", "amenity": "restaurant", "cuisine": "regional", "email": "milano@dalbolognese.it", "name": "Dal Bolognese", "opening_hours": "Mo-Fr 12:45-15:00,20:00-23:00; Sa 20:00-23:00", "phone": "+39 02 62694845"}}, {"type": "Feature", "id": 639281840, "geometry": {"type": "Point", "coordinates": [9.1687742, 45.5454094]}, "properties": {"amenity": "restaurant", "cuisine": "pizza;kebab", "name": "Pizzeria Mare Chiaro", "source": "survey"}}, {"type": "Feature", "id": 648676819, "geometry": {"type": "Point", "coordinates": [9.1379009, 45.483263]}, "properties": {"addr:city": "Milano", "addr:country": "IT", "addr:postcode": "20148", "addr:street": "Via Marco Cremosano", "amenity": "restaurant", "name": "Ribot"}}, {"type": "Feature", "id": 649739555, "geometry": {"type": "Point", "coordinates": [9.1187053, 45.4887504]}, "properties": {"addr:housenumber": "20", "addr:postcode": "20151", "addr:street": "Via Giulio Natta", "amenity": "restaurant", "cuisine": "pizza", "name": "Cotica", "phone": "+39 02 33491083"}}, {"type": "Feature", "id": 651860101, "geometry": {"type": "Point", "coordinates": [9.1288109, 45.4863737]}, "properties": {"addr:city": "Milano", "addr:country": "IT", "addr:housenumber": "5", "addr:postcode": "20151", "addr:street": "Via Carlo Osma", "amenity": "restaurant", "cuisine": "pizza", "name": "l'Arca"}}, {"type": "Feature", "id": 652915403, "geometry": {"type": "Point", "coordinates": [9.1567568, 45.5492777]}, "properties": {"amenity": "restaurant", "cuisine": "spanish", "name": "La Peseta", "source": "survey"}}, {"type": "Feature", "id": 661329722, "geometry": {"type": "Point", "coordinates": [9.1564361, 45.5466581]}, "properties": {"addr:city": "Cormano", "addr:country": "IT", "addr:housenumber": "151", "addr:street": "Via dei Giovi", "amenity": "restaurant", "cuisine": "italian;pizza", "description": "ristorante pizzeria", "name": "La Pergola 2", "opening_hours": "11:30-15:00, 18:00-23:00", "phone": "+39 02 66307475", "source": "survey"}}, {"type": "Feature", "id": 661736063, "geometry": {"type": "Point", "coordinates": [9.1587264, 45.5474896]}, "properties": {"amenity": "restaurant", "name": "... Al Peter!!! ristorante bar paninoteca", "source": "survey"}}, {"type": "Feature", "id": 662607037, "geometry": {"type": "Point", "coordinates": [9.1553245, 45.5491619]}, "properties": {"amenity": "restaurant", "cuisine": "chinese;italian;pizza", "name": "Ristorante Pizzeria Bar Italo-Cinese", "source": "survey"}}, {"type": "Feature", "id": 662611273, "geometry": {"type": "Point", "coordinates": [9.1552279, 45.5496072]}, "properties": {"amenity": "restaurant", "name": "Mipapi bar trattoria", "source": "survey"}}, {"type": "Feature", "id": 662838487, "geometry": {"type": "Point", "coordinates": [9.1734361, 45.4564375]}, "properties": {"amenity": "restaurant", "name": "Da Willy"}}, {"type": "Feature", "id": 668213550, "geometry": {"type": "Point", "coordinates": [9.1275471, 45.4868109]}, "properties": {"addr:city": "Milano", "addr:country": "IT", "addr:housenumber": "22", "addr:postcode": "20151", "addr:street": "Via Trenno", "amenity": "restaurant", "name": "Antica Trattoria Lampugnano"}}, {"type": "Feature", "id": 672556639, "geometry": {"type": "Point", "coordinates": [9.1654023, 45.4468679]}, "properties": {"addr:city": "Milano", "addr:country": "IT", "addr:housenumber": "22/b", "addr:postcode": "20143", "addr:street": "Via Carlo Torre", "amenity": "restaurant", "cuisine": "pizza", "name": "Troppa Pizza", "note": "giro pizza a 12 euro"}}, {"type": "Feature", "id": 678686432, "geometry": {"type": "Point", "coordinates": [9.1842026, 45.4871967]}, "properties": {"addr:city": "Milano", "addr:country": "IT", "addr:housenumber": "38", "addr:postcode": "20159", "addr:street": "Via Guglielmo Pepe", "amenity": "restaurant", "cuisine": "greek", "name": "Akropolis"}}, {"type": "Feature", "id": 679403048, "geometry": {"type": "Point", "coordinates": [9.1345211, 45.4962402]}, "properties": {"addr:city": "Milano", "addr:country": "IT", "addr:housenumber": "92", "addr:street": "Via Gallarate", "amenity": "restaurant", "name": "La Pobbia"}}, {"type": "Feature", "id": 693933502, "geometry": {"type": "Point", "coordinates": [9.1239399, 45.5028665]}, "properties": {"addr:city": "Milano", "addr:country": "IT", "addr:housenumber": "294", "addr:street": "Viale Certosa", "amenity": "restaurant", "cuisine": "mexican", "name": "Grand Canyon"}}, {"type": "Feature", "id": 702123061, "geometry": {"type": "Point", "coordinates": [9.1717424, 45.476482]}, "properties": {"amenity": "restaurant"}}, {"type": "Feature", "id": 702125854, "geometry": {"type": "Point", "coordinates": [9.1704604, 45.4768618]}, "properties": {"amenity": "restaurant", "cuisine": "regional", "name": "Bottega Ghiotta", "outdoor_seating": "yes", "start_date": "2014"}}, {"type": "Feature", "id": 702126198, "geometry": {"type": "Point", "coordinates": [9.1726892, 45.4771628]}, "properties": {"amenity": "restaurant", "name": "Il Tunnel"}}, {"type": "Feature", "id": 702127134, "geometry": {"type": "Point", "coordinates": [9.1724881, 45.4776443]}, "properties": {"addr:city": "Milano", "addr:country": "IT", "addr:housenumber": "9", "addr:postcode": "20154", "addr:street": "Via Luigi Cagnola", "amenity": "restaurant", "cuisine": "pizza", "name": "Pop Up"}}, {"type": "Feature", "id": 702127431, "geometry": {"type": "Point", "coordinates": [9.1726491, 45.4768092]}, "properties": {"amenity": "restaurant", "cuisine": "japanese", "name": "Okonomiyaki"}}, {"type": "Feature", "id": 702132285, "geometry": {"type": "Point", "coordinates": [9.1702994, 45.477648]}, "properties": {"amenity": "restaurant", "name": "Poku Poke Place"}}, {"type": "Feature", "id": 702139784, "geometry": {"type": "Point", "coordinates": [9.172065, 45.4685651]}, "properties": {"addr:city": "Milano", "addr:country": "IT", "addr:housenumber": "27", "addr:postcode": "20123", "addr:street": "Via Vincenzo Monti", "amenity": "restaurant", "name": "Osteria della Via Appia"}}, {"type": "Feature", "id": 705704779, "geometry": {"type": "Point", "coordinates": [9.1336706, 45.5008631]}, "properties": {"addr:city": "Milano", "addr:country": "IT", "addr:housenumber": "48", "addr:street": "Via Barnaba Oriani", "amenity": "restaurant", "name": "Antica Osteria del 48"}}, {"type": "Feature", "id": 718857128, "geometry": {"type": "Point", "coordinates": [9.2056948, 45.4812967]}, "properties": {"addr:city": "Milano", "addr:country": "IT", "addr:housenumber": "18", "addr:postcode": "20124", "addr:street": "Via Luigi Settembrini", "amenity": "restaurant", "cuisine": "italian", "name": "Settembrini 18", "website": "https://ristorantesettembrini18.it/"}}, {"type": "Feature", "id": 718857132, "geometry": {"type": "Point", "coordinates": [9.2041715, 45.4815711]}, "properties": {"addr:city": "Milano", "addr:country": "IT", "addr:housenumber": "3", "addr:postcode": "20124", "addr:street": "Via Mauro Macchi", "amenity": "restaurant", "cuisine": "sushi"}}, {"type": "Feature", "id": 745843808, "geometry": {"type": "Point", "coordinates": [9.0806931, 45.4946348]}, "properties": {"addr:city": "Milano", "addr:country": "IT", "addr:street": "Via Ponte del Giuscano", "amenity": "restaurant", "name": "Osteria del Ponte"}}, {"type": "Feature", "id": 746951199, "geometry": {"type": "Point", "coordinates": [9.169513, 45.4504511]}, "properties": {"amenity": "restaurant", "cuisine": "greek", "name": "Locanda Greca"}}, {"type": "Feature", "id": 746951476, "geometry": {"type": "Point", "coordinates": [9.1776773, 45.451319]}, "properties": {"amenity": "restaurant", "name": "Burgerama"}}, {"type": "Feature", "id": 792832879, "geometry": {"type": "Point", "coordinates": [9.0840657, 45.5121773]}, "properties": {"addr:city": "Pero", "addr:country": "IT", "addr:housenumber": "152", "addr:street": "Via Sempione", "amenity": "restaurant", "cuisine": "pizza", "name": "L'angolo della Pizza"}}, {"type": "Feature", "id": 793812313, "geometry": {"type": "Point", "coordinates": [9.2135749, 45.4544307]}, "properties": {"amenity": "restaurant", "name": "Pomodorino"}}, {"type": "Feature", "id": 799152575, "geometry": {"type": "Point", "coordinates": [9.192744, 45.47048]}, "properties": {"amenity": "restaurant", "name": "il Salumaio"}}, {"type": "Feature", "id": 870025191, "geometry": {"type": "Point", "coordinates": [9.1774613, 45.4595842]}, "properties": {"amenity": "restaurant", "name": "Pumm\u00e0 Milano"}}, {"type": "Feature", "id": 870114138, "geometry": {"type": "Point", "coordinates": [9.2230219, 45.5038579]}, "properties": {"addr:city": "Milano", "addr:country": "IT", "addr:housenumber": "2", "addr:postcode": "20127", "addr:street": "Via Luigi Bertelli", "amenity": "restaurant", "cuisine": "steak_house", "name": "Seven' Casa dei Ciliegi", "phone": "+39 02 2615190", "website": "http://www.sevengroup.it/seven/"}}, {"type": "Feature", "id": 870121476, "geometry": {"type": "Point", "coordinates": [9.2050227, 45.4560476]}, "properties": {"addr:city": "Milano", "addr:housenumber": "29", "addr:street": "Viale Monte Nero", "amenity": "restaurant", "name": "Seven", "phone": "+39 02 54019867", "source": "http://www.sevengroup.it/seven/pop_dovemontenero.htm", "website": "http://www.sevengroup.it/seven/index1.htm"}}, {"type": "Feature", "id": 915269431, "geometry": {"type": "Point", "coordinates": [9.2748757, 45.5286014]}, "properties": {"amenity": "restaurant", "name": "La Rosa dei Venti", "wheelchair": "yes"}}, {"type": "Feature", "id": 915269432, "geometry": {"type": "Point", "coordinates": [9.2761202, 45.5285939]}, "properties": {"amenity": "restaurant", "name": "Pizzeria Castello", "wheelchair": "no"}}, {"type": "Feature", "id": 929808759, "geometry": {"type": "Point", "coordinates": [9.1905653, 45.4657211]}, "properties": {"amenity": "restaurant", "name": "Ristorante Savini", "opening_hours": "Mo-Fr 12:00-14:30,19:00-22:30; Sa 19:00-22:30", "website": "http://savinimilano.it/"}}, {"type": "Feature", "id": 931892027, "geometry": {"type": "Point", "coordinates": [9.2226417, 45.5394772]}, "properties": {"amenity": "restaurant", "cuisine": "italian;pizza", "name": "San Giovanni 2"}}, {"type": "Feature", "id": 932049292, "geometry": {"type": "Point", "coordinates": [9.1941376, 45.4656651]}, "properties": {"addr:housenumber": "8", "addr:postcode": "20121", "addr:street": "Piazza Liberty", "amenity": "restaurant", "cuisine": "italian", "fax": "+39 02 798631", "name": "Charleston", "phone": "+39 02 798631", "website": "http://www.ristorantecharleston.it"}}, {"type": "Feature", "id": 981876584, "geometry": {"type": "Point", "coordinates": [9.1172383, 45.4788993]}, "properties": {"amenity": "restaurant"}}, {"type": "Feature", "id": 986733758, "geometry": {"type": "Point", "coordinates": [9.1549105, 45.4473636]}, "properties": {"addr:city": "Milano", "addr:country": "IT", "addr:housenumber": "2", "addr:street": "Via Giovanni Enrico Pestalozzi", "amenity": "restaurant", "cuisine": "italian;pizza", "name": "II Principe dei Navigli", "opening_hours": "Mo-Su 12:00-14:45, 19:30-23:00", "phone": "+39 02 89126248"}}, {"type": "Feature", "id": 994183840, "geometry": {"type": "Point", "coordinates": [9.2079474, 45.4593444]}, "properties": {"addr:city": "Milano", "addr:country": "IT", "addr:housenumber": "4", "addr:street": "Via Spartaco", "amenity": "restaurant", "name": "Taverna degli Amici"}}, {"type": "Feature", "id": 1003136496, "geometry": {"type": "Point", "coordinates": [9.1179164, 45.4607977]}, "properties": {"amenity": "restaurant"}}, {"type": "Feature", "id": 1029646493, "geometry": {"type": "Point", "coordinates": [9.1857399, 45.4720749]}, "properties": {"addr:city": "Milano", "addr:country": "IT", "addr:housenumber": "2", "addr:postcode": "20121", "addr:street": "Vicolo Fiori", "amenity": "restaurant", "comment:it": "in passato qui c'era bar Sans Egal", "cuisine": "italian", "internet_access": "wlan", "name": "Hosteria della musica"}}, {"type": "Feature", "id": 1029654164, "geometry": {"type": "Point", "coordinates": [9.1806387, 45.4532746]}, "properties": {"addr:city": "Milano", "addr:country": "IT", "addr:housenumber": "4", "addr:postcode": "20122", "addr:street": "Piazza Sant'Eustorgio", "amenity": "restaurant", "contact:phone": "+39 02 39811750", "name": "California Bakery", "operator": "California Bakery Italy srl", "ref:vatin": "IT09440730969", "website": "http://www.californiabakery.it/it_IT/home/sant-eustorgio.html", "wheelchair": "limited"}}, {"type": "Feature", "id": 1056386098, "geometry": {"type": "Point", "coordinates": [9.1754638, 45.4500423]}, "properties": {"addr:city": "Milano", "addr:country": "IT", "addr:housenumber": "15", "addr:postcode": "20143", "addr:street": "Via Magolfa", "amenity": "restaurant", "contact:facebook": "https://www.facebook.com/pages/La-Magolfa-Pizzeria-Navigli/130610747070343", "contact:phone": "+39 02 8321696", "contact:tripadvisor": "https://www.tripadvisor.it/Restaurant_Review-g187849-d1100325-Reviews-La_Magolfa-Milan_Lombardy.html", "contact:website": "http://www.lamagolfa.it/", "contact:yelp": "http://www.yelp.com/biz/la-magolfa-milano", "cuisine": "pizza", "name": "La Magolfa", "opening_hours": "Mo-Su 12:00-14:30, 19:00-00:30", "ref:vatin": "IT03615810961", "smoking": "outside", "takeaway": "no"}}, {"type": "Feature", "id": 1077826130, "geometry": {"type": "Point", "coordinates": [9.1975142, 45.5467655]}, "properties": {"amenity": "restaurant", "cuisine": "italian;pizza", "description": "ristorante, pizzeria forno a legna", "name": "Il Volo"}}, {"type": "Feature", "id": 1080818676, "geometry": {"type": "Point", "coordinates": [9.1875777, 45.5435379]}, "properties": {"addr:city": "Bresso", "addr:country": "IT", "addr:housenumber": "6", "addr:postcode": "20091", "addr:street": "Via Valassina", "amenity": "restaurant", "cuisine": "italian", "description": "Restaurant & Steak", "name": "La Buatta del Kangaroo", "source": "survey"}}, {"type": "Feature", "id": 1083845004, "geometry": {"type": "Point", "coordinates": [9.1738163, 45.5419481]}, "properties": {"amenity": "restaurant", "cuisine": "italian", "name": "Osteria dell'Orologio", "source": "bing, survey"}}, {"type": "Feature", "id": 1088119584, "geometry": {"type": "Point", "coordinates": [9.1117516, 45.4431486]}, "properties": {"amenity": "restaurant", "cuisine": "cuban", "name": "Tocororo"}}, {"type": "Feature", "id": 1111563533, "geometry": {"type": "Point", "coordinates": [9.1715002, 45.4556116]}, "properties": {"amenity": "restaurant", "cuisine": "italian", "name": "Osteria Vedette"}}, {"type": "Feature", "id": 1112456201, "geometry": {"type": "Point", "coordinates": [9.1705008, 45.4510206]}, "properties": {"addr:city": "Milano", "addr:country": "IT", "addr:housenumber": "56", "addr:postcode": "20144", "addr:street": "Alzaia Naviglio Grande", "amenity": "restaurant", "cuisine": "pizza", "name": "I Capatosta"}}, {"type": "Feature", "id": 1118672491, "geometry": {"type": "Point", "coordinates": [9.2162792, 45.4919543]}, "properties": {"addr:city": "Milano", "addr:country": "IT", "addr:housenumber": "54", "addr:postcode": "20127", "addr:street": "Via Giulio e Corrado Venini", "amenity": "restaurant", "cuisine": "chinese", "name": "Il Tiglio"}}, {"type": "Feature", "id": 1118675756, "geometry": {"type": "Point", "coordinates": [9.2172633, 45.4872321]}, "properties": {"amenity": "restaurant", "name": "Kimura"}}, {"type": "Feature", "id": 1119388315, "geometry": {"type": "Point", "coordinates": [9.175309, 45.542802]}, "properties": {"amenity": "restaurant", "cuisine": "italian", "description": "ristorante", "name": "Peccati di Gola", "source": "bing, survey"}}, {"type": "Feature", "id": 1128409869, "geometry": {"type": "Point", "coordinates": [9.1589085, 45.539932]}, "properties": {"amenity": "restaurant", "description": "degustazione pesce", "name": "Ristorante la Pescheria", "source": "bing, survey"}}, {"type": "Feature", "id": 1133055342, "geometry": {"type": "Point", "coordinates": [9.1696027, 45.544664]}, "properties": {"amenity": "restaurant", "cuisine": "italian", "name": "Osteria Belavista"}}, {"type": "Feature", "id": 1134692307, "geometry": {"type": "Point", "coordinates": [9.1704797, 45.5445817]}, "properties": {"amenity": "restaurant", "description": "circolOsteria associazione culturale", "name": "Corte Manlio", "opening_hours": "We-Su 18:00-20:00", "phone": "+39 02 66306875", "source": "survey"}}, {"type": "Feature", "id": 1149659959, "geometry": {"type": "Point", "coordinates": [9.2246935, 45.5025816]}, "properties": {"addr:city": "Milano", "addr:country": "IT", "addr:housenumber": "34", "addr:postcode": "20127", "addr:street": "Via Policarpo Petrocchi", "amenity": "restaurant", "cuisine": "pizza", "name": "Pizzeria Martesana"}}, {"type": "Feature", "id": 1149660002, "geometry": {"type": "Point", "coordinates": [9.2231053, 45.5049014]}, "properties": {"addr:city": "Milano", "addr:country": "IT", "addr:housenumber": "4", "addr:postcode": "20127", "addr:street": "Via Monte San Gabriele", "amenity": "restaurant", "cuisine": "pizza", "name": "La Scalea"}}, {"type": "Feature", "id": 1157895751, "geometry": {"type": "Point", "coordinates": [9.2965454, 45.428385]}, "properties": {"addr:postcode": "20068", "addr:street": "Via Carducci", "amenity": "restaurant", "cuisine": "italian", "name": "Laghetto Azzurro", "website": "http://www.laghettoazzurro.it/ristorante"}}, {"type": "Feature", "id": 1170559052, "geometry": {"type": "Point", "coordinates": [9.2118913, 45.4612043]}, "properties": {"addr:city": "Milano", "addr:country": "IT", "addr:housenumber": "1", "addr:street": "Via Carlo Foldi", "amenity": "restaurant", "cuisine": "italian", "name": "La Cornucopia"}}, {"type": "Feature", "id": 1189928685, "geometry": {"type": "Point", "coordinates": [9.1636818, 45.4841413]}, "properties": {"addr:city": "Milano", "addr:country": "IT", "addr:housenumber": "38", "addr:postcode": "20154", "addr:street": "Via Piero della Francesca", "amenity": "restaurant", "cuisine": "pizza", "name": "Mela Rossa"}}, {"type": "Feature", "id": 1189928766, "geometry": {"type": "Point", "coordinates": [9.1643979, 45.4846332]}, "properties": {"addr:city": "Milano", "addr:country": "IT", "addr:housenumber": "16", "addr:postcode": "20154", "addr:street": "Via Lodovico Castelvetro", "amenity": "restaurant", "cuisine": "chinese", "name": "Bon Wei", "opening_hours": "Tu-Su 12:00-14:30,19:00-23:30", "phone": "+39 02 341308", "website": "http://www.bon-wei.it/"}}, {"type": "Feature", "id": 1189928772, "geometry": {"type": "Point", "coordinates": [9.1650801, 45.4848074]}, "properties": {"addr:city": "Milano", "addr:country": "IT", "addr:housenumber": "11", "addr:postcode": "20154", "addr:street": "Via Giovanni Battista Fauche'", "amenity": "restaurant", "cuisine": "italian", "email": "info@osterialecorti.it", "name": "Osteria delle Corti", "phone": "+39 02 33105753", "website": "https://www.osterialecorti.it/"}}, {"type": "Feature", "id": 1189928789, "geometry": {"type": "Point", "coordinates": [9.1655052, 45.4834359]}, "properties": {"amenity": "restaurant", "cuisine": "regional", "name": "La sirena partenope"}}, {"type": "Feature", "id": 1241753762, "geometry": {"type": "Point", "coordinates": [9.2665177, 45.4298166]}, "properties": {"amenity": "restaurant", "cuisine": "pizza"}}, {"type": "Feature", "id": 1253820481, "geometry": {"type": "Point", "coordinates": [9.1866888, 45.4863171]}, "properties": {"addr:city": "Milano", "addr:housenumber": "3", "addr:postcode": "20159", "addr:street": "Via Carmagnola", "amenity": "restaurant", "cuisine": "italian;regional", "email": "info@vecchisapori.it", "name": "Osteria dei Vecchi Sapori", "opening_hours": "Mo-Fr 12:30-14:30,19:30-23:30; Sa,Su 19:30-23:30", "phone": "+39 02 6686148", "website": "http://www.vecchisapori.it/"}}, {"type": "Feature", "id": 1277321358, "geometry": {"type": "Point", "coordinates": [9.1516689, 45.4470474]}, "properties": {"amenity": "restaurant", "name": "Verso verde"}}, {"type": "Feature", "id": 1278750397, "geometry": {"type": "Point", "coordinates": [9.1466035, 45.4455626]}, "properties": {"amenity": "restaurant", "cuisine": "american", "name": "Muu House - Steak & Grain"}}, {"type": "Feature", "id": 1279695347, "geometry": {"type": "Point", "coordinates": [9.2131304, 45.4819876]}, "properties": {"addr:city": "Milano", "addr:country": "IT", "addr:housenumber": "4", "addr:postcode": "20131", "addr:street": "Via Gaspare Spontini", "amenity": "restaurant", "cuisine": "pizza", "name": "Spontini"}}, {"type": "Feature", "id": 1285218919, "geometry": {"type": "Point", "coordinates": [9.1801894, 45.4780419]}, "properties": {"addr:city": "Milano", "addr:housenumber": "5", "addr:postcode": "20154", "addr:street": "Piazza Lega Lombarda", "amenity": "restaurant", "cuisine": "italian", "email": "info@nuovaarena.it", "name": "Ristorante Nuova Arena", "phone": "+39 02 341437", "smoking": "no", "website": "http://www.nuovaarena.it/"}}, {"type": "Feature", "id": 1298672625, "geometry": {"type": "Point", "coordinates": [9.1526327, 45.4883612]}, "properties": {"addr:city": "Milano", "addr:country": "IT", "addr:housenumber": "11", "addr:street": "Via Carlo Ilarione Petitti", "amenity": "restaurant", "name": "Qui si mangia"}}, {"type": "Feature", "id": 1318763914, "geometry": {"type": "Point", "coordinates": [9.1786264, 45.5287502]}, "properties": {"amenity": "restaurant", "name": "Trattoria A casa mia", "name:ru": "\u0422\u0440\u0430\u0442\u0442\u043e\u0440\u0438\u044f \u0433\u0434\u0435 \u043a\u043e\u0440\u043c\u044f\u0442 \u043d\u0435 \u0432\u043a\u0443\u0441\u043d\u043e"}}, {"type": "Feature", "id": 1331294767, "geometry": {"type": "Point", "coordinates": [9.133861, 45.4678804]}, "properties": {"amenity": "restaurant", "name": "Trotter"}}, {"type": "Feature", "id": 1347179131, "geometry": {"type": "Point", "coordinates": [9.2109699, 45.4889025]}, "properties": {"addr:city": "Milano", "addr:country": "IT", "addr:housenumber": "30", "addr:street": "Viale Brianza", "amenity": "restaurant", "cuisine": "pizza", "name": "PizzaBig"}}, {"type": "Feature", "id": 1432170553, "geometry": {"type": "Point", "coordinates": [9.1926098, 45.5234499]}, "properties": {"amenity": "restaurant", "name": "California"}}, {"type": "Feature", "id": 1463921448, "geometry": {"type": "Point", "coordinates": [9.1976112, 45.4855692]}, "properties": {"addr:city": "Milano", "addr:country": "IT", "addr:housenumber": "8", "addr:postcode": "20124", "addr:street": "Via Gerolamo Cardano", "amenity": "restaurant", "cuisine": "japanese;italian", "name": "Yang"}}, {"type": "Feature", "id": 1476116761, "geometry": {"type": "Point", "coordinates": [9.2399615, 45.4360737]}, "properties": {"amenity": "restaurant", "cuisine": "regional", "name": "pizzeria Santa Giulia", "wheelchair": "yes"}}, {"type": "Feature", "id": 1525006558, "geometry": {"type": "Point", "coordinates": [9.169975, 45.5193207]}, "properties": {"addr:city": "Milano", "addr:housenumber": "1", "addr:street": "Via Michele Novaro", "amenity": "restaurant", "cuisine": "italian", "name": "Affori Ristorante", "website": "http://www.ristoranteaffori.com"}}, {"type": "Feature", "id": 1525006594, "geometry": {"type": "Point", "coordinates": [9.1691899, 45.5210579]}, "properties": {"addr:housenumber": "54", "addr:street": "Via Alessandro Astesani", "amenity": "restaurant", "cuisine": "italian;pizza", "name": "Ristorante pizzeria I due pini"}}, {"type": "Feature", "id": 1525186201, "geometry": {"type": "Point", "coordinates": [9.1704534, 45.5121684]}, "properties": {"amenity": "restaurant", "cuisine": "italian", "name": "La Piccola Trattoria"}}, {"type": "Feature", "id": 1526792904, "geometry": {"type": "Point", "coordinates": [9.3108511, 45.463943]}, "properties": {"amenity": "restaurant", "cuisine": "italian", "name": "Vitelloni Ristogrill", "website": "http://www.ristorantemilano.biz/"}}, {"type": "Feature", "id": 1526792906, "geometry": {"type": "Point", "coordinates": [9.3136061, 45.4623895]}, "properties": {"amenity": "restaurant", "cuisine": "italian", "name": "Ristorante Il Maneggio", "phone": "+39 02 7531051", "website": "http://www.ristorantealmaneggio.it/"}}, {"type": "Feature", "id": 1554244803, "geometry": {"type": "Point", "coordinates": [9.264606, 45.4264071]}, "properties": {"amenity": "restaurant", "name": "Terfor Caf\u00e8"}}, {"type": "Feature", "id": 1564074759, "geometry": {"type": "Point", "coordinates": [9.108868, 45.4770033]}, "properties": {"amenity": "restaurant"}}, {"type": "Feature", "id": 1593183881, "geometry": {"type": "Point", "coordinates": [9.2026871, 45.5092128]}, "properties": {"addr:city": "Milano", "addr:country": "IT", "addr:housenumber": "78", "addr:postcode": "20126", "addr:street": "Viale Fulvio Testi", "amenity": "restaurant", "cuisine": "pizza", "name": "Pizzeria Da Pino", "source": "direct knowledge"}}, {"type": "Feature", "id": 1593187668, "geometry": {"type": "Point", "coordinates": [9.2004984, 45.5086639]}, "properties": {"addr:city": "Milano", "addr:country": "IT", "addr:housenumber": "18", "addr:postcode": "20162", "addr:street": "Via Cino da Pistoia", "amenity": "restaurant", "cuisine": "pizza", "name": "Pizzeria Pratocentenaro", "source": "direct knowledge"}}, {"type": "Feature", "id": 1593793939, "geometry": {"type": "Point", "coordinates": [9.2014068, 45.5067569]}, "properties": {"addr:city": "Milano", "addr:country": "IT", "addr:housenumber": "58", "addr:postcode": "20125", "addr:street": "Viale Fulvio Testi", "amenity": "restaurant", "cuisine": "pizza;japanese", "name": "Al Desiderio", "source": "direct knowledge"}}, {"type": "Feature", "id": 1597402241, "geometry": {"type": "Point", "coordinates": [9.1381239, 45.4621567]}, "properties": {"addr:city": "Milano", "addr:country": "IT", "addr:housenumber": "31", "addr:street": "Via Sofonisba Anguissola", "amenity": "restaurant", "cuisine": "italian", "name": "La rete del pescatore"}}, {"type": "Feature", "id": 1598067427, "geometry": {"type": "Point", "coordinates": [9.1663051, 45.4528071]}, "properties": {"amenity": "restaurant", "name": "Boccino"}}, {"type": "Feature", "id": 1614193683, "geometry": {"type": "Point", "coordinates": [9.2425222, 45.4839694]}, "properties": {"addr:city": "Milano", "addr:country": "IT", "addr:housenumber": "2", "addr:postcode": "20134", "addr:street": "Via Giovanni Ventura", "amenity": "restaurant", "cuisine": "sushi;chinese;japanese", "name": "Koshin"}}, {"type": "Feature", "id": 1631935010, "geometry": {"type": "Point", "coordinates": [9.2207933, 45.5034426]}, "properties": {"addr:city": "Milano", "addr:country": "IT", "addr:housenumber": "5", "addr:postcode": "20126", "addr:street": "Via Tofane", "amenity": "restaurant", "cuisine": "greek", "email": "info@mykonos-ristorantegreco.it", "name": "Mykonos", "phone": "+39 02 2610209", "website": "http://www.mykonos-ristorantegreco.it/"}}, {"type": "Feature", "id": 1635651046, "geometry": {"type": "Point", "coordinates": [9.2139009, 45.3772187]}, "properties": {"addr:city": "Opera", "addr:housenumber": "17", "addr:postcode": "20090", "addr:street": "Via Giuseppe Garibaldi", "amenity": "restaurant", "cuisine": "chinese;japanese", "delivery": "yes", "name": "Ristorante Ming", "outdoor_seating": "no", "smoking": "outside", "takeaway": "yes"}}, {"type": "Feature", "id": 1641135136, "geometry": {"type": "Point", "coordinates": [9.1706976, 45.4510463]}, "properties": {"addr:housenumber": "54", "addr:postcode": "20144", "addr:street": "Alzaia Naviglio Grande", "alt_name": "Asso di Fiori", "amenity": "restaurant", "cuisine": "italian", "name": "Osteria dei Formaggi"}}, {"type": "Feature", "id": 1647202252, "geometry": {"type": "Point", "coordinates": [9.1929632, 45.4199151]}, "properties": {"addr:city": "Milano", "addr:country": "IT", "addr:housenumber": "36", "addr:postcode": "20142", "addr:street": "Via Selvanesco", "amenity": "restaurant", "name": "Al Garghet", "opening_hours": "Tu-Sa 19:30-22:30; Su 12:00-14:00, 19:30-22:30", "phone": "+39 02 534698", "website": "http://algarghet.it"}}, {"type": "Feature", "id": 1650239857, "geometry": {"type": "Point", "coordinates": [9.2283974, 45.4619892]}, "properties": {"amenity": "restaurant", "cuisine": "japanese", "name": "Kandoo"}}, {"type": "Feature", "id": 1650244143, "geometry": {"type": "Point", "coordinates": [9.2275554, 45.4628035]}, "properties": {"amenity": "restaurant", "cuisine": "pizza", "name": "Mamma Oliva"}}, {"type": "Feature", "id": 1650247396, "geometry": {"type": "Point", "coordinates": [9.2279965, 45.4619632]}, "properties": {"amenity": "restaurant", "cuisine": "regional", "name": "Tigella's"}}, {"type": "Feature", "id": 1650251595, "geometry": {"type": "Point", "coordinates": [9.2329266, 45.4623323]}, "properties": {"amenity": "restaurant", "cuisine": "pizza", "name": "Forno Antico"}}, {"type": "Feature", "id": 1651694685, "geometry": {"type": "Point", "coordinates": [9.1850903, 45.5048616]}, "properties": {"addr:housenumber": "13", "addr:street": "Via Monzambano", "amenity": "restaurant", "cuisine": "italian", "name": "Ai 3 Scugnizzi", "website": "www.ristorantepizzeriaaitrescugnizzi.com"}}, {"type": "Feature", "id": 1652682808, "geometry": {"type": "Point", "coordinates": [9.2195274, 45.4802026]}, "properties": {"amenity": "restaurant", "cuisine": "chinese", "name": "Mandarin 2"}}, {"type": "Feature", "id": 1652682809, "geometry": {"type": "Point", "coordinates": [9.2210821, 45.4797273]}, "properties": {"addr:city": "Milano", "addr:housenumber": "7", "addr:postcode": "20133", "addr:street": "Via Filippino Lippi", "amenity": "restaurant", "capacity": "120", "cuisine": "italian", "name": "Bont\u00e0 Pi\u00f9", "opening_hours": "Mo 11:00-14:30; Tu-Sa 11:00-24:00; Su 11:00-14:30", "payment:bitcoin": "yes", "smoking": "outside", "wheelchair": "yes"}}, {"type": "Feature", "id": 1652682818, "geometry": {"type": "Point", "coordinates": [9.2210553, 45.479291]}, "properties": {"amenity": "restaurant", "cuisine": "italian", "name": "Hot Meeting", "opening_hours": "Mo-Su 09:00-15:00,19:00-00:30"}}, {"type": "Feature", "id": 1652682819, "geometry": {"type": "Point", "coordinates": [9.2177821, 45.4813695]}, "properties": {"amenity": "restaurant", "cuisine": "italian", "name": "Trattoria Ambrosiana"}}, {"type": "Feature", "id": 1652682820, "geometry": {"type": "Point", "coordinates": [9.2205886, 45.4802125]}, "properties": {"amenity": "restaurant", "cuisine": "italian", "name": "Starrise"}}, {"type": "Feature", "id": 1652682821, "geometry": {"type": "Point", "coordinates": [9.2173861, 45.4816606]}, "properties": {"amenity": "restaurant", "cuisine": "pizza", "name": "Piccola Ischia"}}, {"type": "Feature", "id": 1652682826, "geometry": {"type": "Point", "coordinates": [9.2209909, 45.4789939]}, "properties": {"amenity": "restaurant", "capacity": "50", "cuisine": "italian", "name": "Milord", "opening_hours": "Mo-Fr 09:00-15:00, Mo-Sa 19:00-02:00", "takeaway": "no"}}, {"type": "Feature", "id": 1652682827, "geometry": {"type": "Point", "coordinates": [9.2214065, 45.4794999]}, "properties": {"amenity": "restaurant", "cuisine": "italian", "name": "DiVino"}}, {"type": "Feature", "id": 1652687570, "geometry": {"type": "Point", "coordinates": [9.2129604, 45.4755305]}, "properties": {"amenity": "restaurant", "cuisine": "regional", "name": "Le Colline Senesi"}}, {"type": "Feature", "id": 1652687571, "geometry": {"type": "Point", "coordinates": [9.2141889, 45.4749615]}, "properties": {"amenity": "restaurant", "cuisine": "regional", "name": "K2"}}, {"type": "Feature", "id": 1652687573, "geometry": {"type": "Point", "coordinates": [9.2225848, 45.4816164]}, "properties": {"addr:housenumber": "7", "addr:street": "Via Alessandro Pestalozza", "amenity": "restaurant", "cuisine": "vietnamese", "name": "7", "opening_hours": "Mo-Sa 12:45-14:30, 20:00-23:30"}}, {"type": "Feature", "id": 1652687577, "geometry": {"type": "Point", "coordinates": [9.2229063, 45.4833612]}, "properties": {"amenity": "restaurant", "cuisine": "italian", "name": "Il Glicine"}}, {"type": "Feature", "id": 1652687595, "geometry": {"type": "Point", "coordinates": [9.2168696, 45.4773064]}, "properties": {"addr:housenumber": "23", "addr:street": "Viale Abruzzi", "amenity": "restaurant", "contact:phone": "+39 02 20404392", "cuisine": "ice_cream", "name": "Viel", "website": "http://viel-milano.com"}}, {"type": "Feature", "id": 1652687599, "geometry": {"type": "Point", "coordinates": [9.2130892, 45.4750857]}, "properties": {"addr:city": "Milano", "addr:housenumber": "14", "addr:postcode": "20129", "addr:street": "Via Achille Maiocchi", "amenity": "restaurant", "cuisine": "regional", "description": "Osteria pizzeria cucina pugliese", "email": "diayed@yahoo.it", "name": "Osteria Il Trullo", "payment:bitcoin": "yes", "phone": "+39 02 29513720"}}, {"type": "Feature", "id": 1665073566, "geometry": {"type": "Point", "coordinates": [9.1810219, 45.4595036]}, "properties": {"addr:city": "Milano", "addr:country": "IT", "addr:housenumber": "6", "addr:postcode": "20123", "addr:street": "Corso di Porta Ticinese", "amenity": "restaurant", "contact:phone": "+39 02 89429241", "contact:website": "http://www.zeroduemilano.com", "fixme": "Position estimated", "name": "Zero Due"}}, {"type": "Feature", "id": 1679597950, "geometry": {"type": "Point", "coordinates": [9.2301928, 45.4822893]}, "properties": {"amenity": "restaurant", "cuisine": "italian", "name": "La Cuccagna"}}, {"type": "Feature", "id": 1679684089, "geometry": {"type": "Point", "coordinates": [9.2289443, 45.4718961]}, "properties": {"addr:city": "Milano", "addr:housenumber": "41", "addr:postcode": "20133", "addr:street": "Via Sangallo", "amenity": "restaurant", "cuisine": "italian", "name": "Il Doge di Amalfi"}}, {"type": "Feature", "id": 1679694006, "geometry": {"type": "Point", "coordinates": [9.2348736, 45.4811202]}, "properties": {"addr:housenumber": "41", "addr:street": "Via Edoardo Bassini", "amenity": "restaurant", "cuisine": "pizza", "name": "Il Postino"}}, {"type": "Feature", "id": 1684675760, "geometry": {"type": "Point", "coordinates": [9.1979499, 45.4847055]}, "properties": {"addr:city": "Milano", "addr:country": "IT", "addr:housenumber": "32", "addr:street": "Via Emilio Cornalia", "amenity": "restaurant", "name": "Ristorante Nectare"}}, {"type": "Feature", "id": 1696116655, "geometry": {"type": "Point", "coordinates": [9.2148813, 45.5110468]}, "properties": {"addr:city": "Milano", "addr:country": "IT", "addr:housenumber": "44", "addr:street": "Via Ernesto Breda", "amenity": "restaurant", "cuisine": "italian", "name": "Pescato e Mangiato"}}, {"type": "Feature", "id": 1697898039, "geometry": {"type": "Point", "coordinates": [9.1762762, 45.4664988]}, "properties": {"addr:city": "Milano", "addr:country": "IT", "addr:housenumber": "9", "addr:postcode": "20123", "addr:street": "Via Giosu\u00e8 Carducci", "amenity": "restaurant", "name": "Cantina Carducci", "shop": "wine"}}, {"type": "Feature", "id": 1708941375, "geometry": {"type": "Point", "coordinates": [9.2248773, 45.4676397]}, "properties": {"addr:housenumber": "18", "addr:postcode": "20133", "addr:street": "Piazzale Susa", "amenity": "restaurant", "cuisine": "italian", "name": "Ciak", "phone": "+39 02 7384353", "ref:vatin": "IT10419040158", "source": "Been there"}}, {"type": "Feature", "id": 1708943816, "geometry": {"type": "Point", "coordinates": [9.2246171, 45.4689846]}, "properties": {"addr:housenumber": "2", "addr:postcode": "20133", "addr:street": "Via Giovanni da Milano", "amenity": "restaurant", "cuisine": "italian", "name": "La Cometa", "source": "Been there"}}, {"type": "Feature", "id": 1708960933, "geometry": {"type": "Point", "coordinates": [9.2234531, 45.4688031]}, "properties": {"addr:city": "Milano", "addr:country": "IT", "addr:housenumber": "7", "addr:postcode": "20133", "addr:street": "Piazzale Susa", "amenity": "restaurant", "cuisine": "italian;pizza", "name": "Mait\u00f2", "phone": "+39 02 70106788", "source": "Been there"}}, {"type": "Feature", "id": 1709631124, "geometry": {"type": "Point", "coordinates": [9.2457588, 45.5001746]}, "properties": {"amenity": "restaurant"}}, {"type": "Feature", "id": 1710636582, "geometry": {"type": "Point", "coordinates": [9.2156412, 45.4537105]}, "properties": {"amenity": "restaurant", "cuisine": "japanese"}}, {"type": "Feature", "id": 1713480122, "geometry": {"type": "Point", "coordinates": [9.2654812, 45.4265167]}, "properties": {"addr:city": "San Donato Milanese", "addr:housenumber": "10", "addr:street": "Via Angelo Moro", "amenity": "restaurant", "cuisine": "sushi", "name": "Koya"}}, {"type": "Feature", "id": 1721034599, "geometry": {"type": "Point", "coordinates": [9.1355345, 45.4612236]}, "properties": {"amenity": "restaurant", "cuisine": "pizza", "name": "Pizzeria Pupiricchiello"}}, {"type": "Feature", "id": 1721473663, "geometry": {"type": "Point", "coordinates": [9.1594139, 45.4632511]}, "properties": {"addr:city": "Milano", "addr:housenumber": "15", "addr:postcode": "20144", "addr:street": "Via Coluccio Salutati", "amenity": "restaurant", "name": "Antica Trattoria Salutati", "phone": "+39 02 463 690"}}, {"type": "Feature", "id": 1721606905, "geometry": {"type": "Point", "coordinates": [9.173383, 45.4623091]}, "properties": {"amenity": "restaurant", "name": "Osteria Carbonaia mare"}}, {"type": "Feature", "id": 1726657252, "geometry": {"type": "Point", "coordinates": [9.1872108, 45.4729445]}, "properties": {"amenity": "restaurant", "name": "Il Pontaccio"}}, {"type": "Feature", "id": 1726657261, "geometry": {"type": "Point", "coordinates": [9.187425, 45.4725183]}, "properties": {"amenity": "restaurant", "cuisine": "italian;pizza", "name": "New Art ristorante e pizzeria"}}, {"type": "Feature", "id": 1726657267, "geometry": {"type": "Point", "coordinates": [9.1875413, 45.4726185]}, "properties": {"amenity": "restaurant", "name": "Ponte di Brera"}}, {"type": "Feature", "id": 1726715775, "geometry": {"type": "Point", "coordinates": [9.188079, 45.4691]}, "properties": {"alt_name": "Ristorante con cantina il Coriandolo", "amenity": "restaurant", "name": "Il Coriandolo"}}, {"type": "Feature", "id": 1726715799, "geometry": {"type": "Point", "coordinates": [9.1849794, 45.469671]}, "properties": {"addr:housenumber": "11", "addr:street": "Via Ponte Vetero", "amenity": "restaurant", "contact:phone": "+39 02 72094367", "contact:website": "http://www.salsamenteria.eu", "name": "Salsamenteria di Parma", "opening_hours": "Mo-Su 12:00-23:00", "operator": "Salsamenteria di parma srl"}}, {"type": "Feature", "id": 1737981848, "geometry": {"type": "Point", "coordinates": [9.1991462, 45.5046046]}, "properties": {"amenity": "restaurant", "name": "Steak House Milano"}}, {"type": "Feature", "id": 1742819708, "geometry": {"type": "Point", "coordinates": [9.1947871, 45.4728755]}, "properties": {"addr:city": "Milano", "addr:country": "IT", "addr:housenumber": "3", "addr:postcode": "20121", "addr:street": "Piazza Cavour", "amenity": "restaurant", "name": "Milanese Caf\u00e8", "name:en": "Camillo Benso", "name:it": "Camillo Benso"}}, {"type": "Feature", "id": 1746838704, "geometry": {"type": "Point", "coordinates": [9.1317513, 45.509278]}, "properties": {"amenity": "restaurant", "cuisine": "pizza", "name": "Portavene (?)"}}, {"type": "Feature", "id": 1780898590, "geometry": {"type": "Point", "coordinates": [9.2544267, 45.4190646]}, "properties": {"amenity": "restaurant", "name": "Stoker"}}, {"type": "Feature", "id": 1807030291, "geometry": {"type": "Point", "coordinates": [9.2116438, 45.4765075]}, "properties": {"amenity": "restaurant", "name": "Porcavacca"}}, {"type": "Feature", "id": 1819589485, "geometry": {"type": "Point", "coordinates": [9.1381387, 45.4433612]}, "properties": {"amenity": "restaurant"}}, {"type": "Feature", "id": 1829745656, "geometry": {"type": "Point", "coordinates": [9.1891788, 45.4671528]}, "properties": {"addr:city": "Milano", "addr:country": "IT", "addr:housenumber": "2", "addr:postcode": "20121", "addr:street": "Via Filodrammatici", "amenity": "restaurant", "cuisine": "italian", "fax": "+39 02 72023286", "name": "Il Marchesino", "phone": "+39 02 72094338", "website": "http://www.gualtieromarchesi.it/il-marchesino.html"}}, {"type": "Feature", "id": 1833591402, "geometry": {"type": "Point", "coordinates": [9.1772074, 45.4578634]}, "properties": {"addr:housenumber": "10", "addr:street": "Via Conca del Naviglio", "amenity": "restaurant", "contact:phone": "+39 02 58104325", "fixme": "Position estimated", "name": "Le Biciclette", "ref:vatin": "IT07742570968", "website": "http://www.lebiciclette.eu"}}, {"type": "Feature", "id": 1846659475, "geometry": {"type": "Point", "coordinates": [9.2573233, 45.4180046]}, "properties": {"amenity": "restaurant", "cuisine": "italian", "name": "Spaghi Bistrot"}}, {"type": "Feature", "id": 1853369351, "geometry": {"type": "Point", "coordinates": [9.1742677, 45.4514641]}, "properties": {"addr:housenumber": "1", "addr:street": "Via Filippo Argelati", "amenity": "restaurant", "cuisine": "japanese", "name": "Kawa"}}, {"type": "Feature", "id": 1855712462, "geometry": {"type": "Point", "coordinates": [9.1917419, 45.4656751]}, "properties": {"amenity": "restaurant", "cuisine": "italian;pizza", "name": "Pizzeria Di Gennaro"}}, {"type": "Feature", "id": 1855779430, "geometry": {"type": "Point", "coordinates": [9.1988089, 45.4659512]}, "properties": {"addr:city": "Milano", "addr:housenumber": "5", "addr:postcode": "20122", "addr:street": "Via Borgogna", "amenity": "restaurant", "cuisine": "sandwich", "diet:vegan": "yes", "drink:wine": "yes", "name": "Panino Giusto", "toilets": "yes"}}, {"type": "Feature", "id": 1860961086, "geometry": {"type": "Point", "coordinates": [9.2970425, 45.4361423]}, "properties": {"amenity": "restaurant", "cuisine": "italian;pizza", "description": "Bar ristorante pizzeria", "name": "La Giovanna"}}, {"type": "Feature", "id": 1895967931, "geometry": {"type": "Point", "coordinates": [9.2251227, 45.4906241]}, "properties": {"amenity": "restaurant", "name": "Capo Verde"}}, {"type": "Feature", "id": 1896236915, "geometry": {"type": "Point", "coordinates": [9.2238522, 45.4885656]}, "properties": {"amenity": "restaurant", "name": "Moulin Rouge"}}, {"type": "Feature", "id": 1898618690, "geometry": {"type": "Point", "coordinates": [9.1875311, 45.5361619]}, "properties": {"amenity": "restaurant", "cuisine": "pizza", "description": "Pizza Grill Caf\u00e8", "name": "Weekend"}}, {"type": "Feature", "id": 1898618693, "geometry": {"type": "Point", "coordinates": [9.1900339, 45.5317258]}, "properties": {"amenity": "restaurant", "cuisine": "pizza", "name": "Mir\u00f2"}}, {"type": "Feature", "id": 1901845017, "geometry": {"type": "Point", "coordinates": [9.1537383, 45.4672054]}, "properties": {"amenity": "restaurant", "cuisine": "brazilian;meat", "name": "Churrascaria \"Berimbau\""}}, {"type": "Feature", "id": 1901845019, "geometry": {"type": "Point", "coordinates": [9.1894743, 45.4624999]}, "properties": {"addr:city": "Milano", "addr:country": "IT", "addr:housenumber": "6", "addr:postcode": "20122", "addr:street": "Piazza Armando Diaz", "amenity": "restaurant", "cuisine": "regional", "email": "info@bottegaghiotta.it", "name": "Bottega Ghiotta", "opening_hours": "Mo-Su 07:00-24:00", "phone": "+39 02 39566018", "website": "http://www.bottegaghiotta.it/"}}, {"type": "Feature", "id": 1901845020, "geometry": {"type": "Point", "coordinates": [9.1763139, 45.4655341]}, "properties": {"addr:city": "Milano", "addr:country": "IT", "addr:housenumber": "9", "addr:postcode": "20123", "addr:street": "Via Terraggio", "amenity": "restaurant", "cuisine": "regional", "name": "Osteria La Carbonella", "opening_hours": "Mo-Sa 12:00-15:00,19:00-23:30", "phone": "+39 02 861835", "start_date": "1978", "website": "http://www.lacarbonella.it/"}}, {"type": "Feature", "id": 1901845022, "geometry": {"type": "Point", "coordinates": [9.1528809, 45.4674403]}, "properties": {"amenity": "restaurant", "cuisine": "japanese", "name": "Kiyo"}}, {"type": "Feature", "id": 1901845026, "geometry": {"type": "Point", "coordinates": [9.2251197, 45.4910687]}, "properties": {"amenity": "restaurant", "cuisine": "japanese", "name": "Misaki"}}, {"type": "Feature", "id": 1901845027, "geometry": {"type": "Point", "coordinates": [9.1905281, 45.4620072]}, "properties": {"addr:city": "Milano", "addr:country": "IT", "addr:housenumber": "5", "addr:postcode": "20122", "addr:street": "Piazza Armando Diaz", "amenity": "restaurant", "cuisine": "sandwich", "email": "infodiaz@crocetta.com", "name": "Crocetta", "phone": "+39 02 36632529"}}, {"type": "Feature", "id": 1901845028, "geometry": {"type": "Point", "coordinates": [9.2040282, 45.483375]}, "properties": {"addr:city": "Milano", "addr:country": "IT", "addr:housenumber": "1", "addr:postcode": "20124", "addr:street": "Via Antonio da Recanate", "amenity": "restaurant", "email": "info@pianetaluna.it", "name": "Pianeta Luna", "phone": "+39 02 66710367", "url": "http://www.pianetaluna.it/"}}, {"type": "Feature", "id": 1901845030, "geometry": {"type": "Point", "coordinates": [9.1522138, 45.4679381]}, "properties": {"amenity": "restaurant", "name": "Quarto de Ravizza"}}, {"type": "Feature", "id": 1901845031, "geometry": {"type": "Point", "coordinates": [9.1602293, 45.465535]}, "properties": {"amenity": "restaurant", "cuisine": "pizza", "fixme": "location", "name": "Shut Up! Pizza"}}, {"type": "Feature", "id": 1901845034, "geometry": {"type": "Point", "coordinates": [9.1984296, 45.4866507]}, "properties": {"addr:city": "Milano", "addr:country": "IT", "addr:housenumber": "15", "addr:postcode": "20124", "addr:street": "Via Luigi Galvani", "amenity": "restaurant", "cuisine": "tuscan", "email": "ilcerchiomilano69@tiscali.it", "name": "Trattoria Tuscana \"Il Cerchio\"", "opening_hours": "Mo-Fr 12:00-15:00,19:00-23:00; Sa 19:00-23:00", "phone": "+39 02 6700738", "website": "https://www.ilcerchiomilano1969.it/"}}, {"type": "Feature", "id": 1901845040, "geometry": {"type": "Point", "coordinates": [9.1527189, 45.46756]}, "properties": {"amenity": "restaurant"}}, {"type": "Feature", "id": 1918683463, "geometry": {"type": "Point", "coordinates": [9.2423477, 45.4845175]}, "properties": {"addr:housenumber": "26", "addr:postcode": "20134", "addr:street": "Via Carlo Bertolazzi", "amenity": "restaurant", "cuisine": "regional", "name": "La Cappelletta", "website": "http://www.trattorialacappelletta.it/"}}, {"type": "Feature", "id": 1923630874, "geometry": {"type": "Point", "coordinates": [9.2290715, 45.4820211]}, "properties": {"amenity": "restaurant", "cuisine": "pizza", "name": "La Cuccuma"}}, {"type": "Feature", "id": 1923842119, "geometry": {"type": "Point", "coordinates": [9.2164729, 45.4805408]}, "properties": {"addr:housenumber": "5", "addr:postcode": "20129", "addr:street": "Via Paracelso", "amenity": "restaurant", "cuisine": "italian", "name": "Osteria La Bistecca"}}, {"type": "Feature", "id": 1924414892, "geometry": {"type": "Point", "coordinates": [9.2764276, 45.4204092]}, "properties": {"amenity": "restaurant", "name": "Ristorante Il Delfino"}}, {"type": "Feature", "id": 1944410727, "geometry": {"type": "Point", "coordinates": [9.1470926, 45.49054]}, "properties": {"amenity": "restaurant", "name": "Rist\u00f2"}}, {"type": "Feature", "id": 1952404948, "geometry": {"type": "Point", "coordinates": [9.2606507, 45.4198569]}, "properties": {"addr:housenumber": "31", "addr:street": "Via Monte Bianco", "amenity": "restaurant", "name": "Nonna Emilia"}}, {"type": "Feature", "id": 1952498484, "geometry": {"type": "Point", "coordinates": [9.2684967, 45.4118392]}, "properties": {"amenity": "restaurant", "name": "Ristorante Pizzeria 4 Archi"}}, {"type": "Feature", "id": 1952498495, "geometry": {"type": "Point", "coordinates": [9.2604883, 45.4179813]}, "properties": {"amenity": "restaurant", "name": "Ristorante Osterietta"}}, {"type": "Feature", "id": 1955032802, "geometry": {"type": "Point", "coordinates": [9.2396263, 45.4823379]}, "properties": {"amenity": "restaurant", "name": "Bar Trattoria Commercio"}}, {"type": "Feature", "id": 1956899162, "geometry": {"type": "Point", "coordinates": [9.219565, 45.5416775]}, "properties": {"amenity": "restaurant", "name": "Fratelli La Bufala"}}, {"type": "Feature", "id": 1960707624, "geometry": {"type": "Point", "coordinates": [9.282054, 45.4227684]}, "properties": {"amenity": "restaurant", "name": "Rosso Pomodoro"}}, {"type": "Feature", "id": 1970699197, "geometry": {"type": "Point", "coordinates": [9.2325362, 45.481866]}, "properties": {"amenity": "restaurant", "contact:phone": "+39 02 45474102", "cuisine": "pizza", "name": "Pizza & Pizza", "takeaway": "yes"}}, {"type": "Feature", "id": 1978573760, "geometry": {"type": "Point", "coordinates": [9.2166526, 45.4851934]}, "properties": {"amenity": "restaurant", "cuisine": "pizza", "name": "Stop"}}, {"type": "Feature", "id": 1978573778, "geometry": {"type": "Point", "coordinates": [9.2255638, 45.4842461]}, "properties": {"amenity": "restaurant", "cuisine": "pizza", "name": "La Brusada"}}, {"type": "Feature", "id": 1980664123, "geometry": {"type": "Point", "coordinates": [9.2203949, 45.4975072]}, "properties": {"addr:housenumber": "92", "addr:postcode": "20127", "addr:street": "Viale Monza", "amenity": "restaurant", "cuisine": "pizza", "name": "Due Chef", "source": "survey"}}, {"type": "Feature", "id": 1993617969, "geometry": {"type": "Point", "coordinates": [9.1710747, 45.4763893]}, "properties": {"addr:city": "Milano", "addr:country": "IT", "addr:housenumber": "3", "addr:street": "Corso Sempione", "amenity": "restaurant", "cuisine": "burger", "name": "Old Wild West"}}, {"type": "Feature", "id": 1995563419, "geometry": {"type": "Point", "coordinates": [9.2096672, 45.5014222]}, "properties": {"addr:housenumber": "1", "addr:postcode": "20125", "addr:street": "Via Comune Antico", "amenity": "restaurant", "cuisine": "regional", "name": "Il Borghetto - Antica trattoria", "website": "http://www.ristoranteborghetto.it/"}}, {"type": "Feature", "id": 1998501565, "geometry": {"type": "Point", "coordinates": [9.2423876, 45.4813082]}, "properties": {"amenity": "restaurant", "cuisine": "pizza", "name": "Charlie Brown"}}, {"type": "Feature", "id": 1998501566, "geometry": {"type": "Point", "coordinates": [9.2427832, 45.4814229]}, "properties": {"amenity": "restaurant", "cuisine": "italian", "name": "L'angolo"}}, {"type": "Feature", "id": 1999671118, "geometry": {"type": "Point", "coordinates": [9.2426115, 45.48355]}, "properties": {"amenity": "restaurant", "cuisine": "italian", "name": "Anna e Leo"}}, {"type": "Feature", "id": 1999869345, "geometry": {"type": "Point", "coordinates": [9.2405689, 45.484008]}, "properties": {"amenity": "restaurant", "cuisine": "italian", "name": "Il calabrone 2"}}, {"type": "Feature", "id": 2000046689, "geometry": {"type": "Point", "coordinates": [9.2470246, 45.4786123]}, "properties": {"amenity": "restaurant", "cuisine": "pizza", "name": "115"}}, {"type": "Feature", "id": 2016327997, "geometry": {"type": "Point", "coordinates": [9.1892911, 45.4574305]}, "properties": {"addr:housenumber": "16", "addr:postcode": "20122", "addr:street": "Via Sant'Eufemia", "amenity": "restaurant", "cuisine": "burger", "name": "Al Mercato", "operator": "Al Mercato s.r.l.", "phone": "+39 02 87237167", "ref:vatin": "IT06980470964", "website": "www.al-mercato.it"}}, {"type": "Feature", "id": 2016985973, "geometry": {"type": "Point", "coordinates": [9.2000762, 45.4784853]}, "properties": {"addr:city": "Milano", "addr:country": "IT", "addr:housenumber": "11", "addr:postcode": "20124", "addr:street": "Via Aldo Manuzio", "amenity": "restaurant", "cuisine": "italian", "level": "0", "name": "Piazza Repubblica", "wheelchair": "no"}}, {"type": "Feature", "id": 2021213623, "geometry": {"type": "Point", "coordinates": [9.2352694, 45.4827406]}, "properties": {"amenity": "restaurant", "cuisine": "steak_house; pizza", "name": "La Mucca Capricciosa"}}, {"type": "Feature", "id": 2024580674, "geometry": {"type": "Point", "coordinates": [9.240079, 45.4822338]}, "properties": {"amenity": "restaurant", "contact:phone": "+39 02 26412365", "cuisine": "pizza", "delivery": "yes", "name": "Dallo Zio"}}, {"type": "Feature", "id": 2024580694, "geometry": {"type": "Point", "coordinates": [9.2409636, 45.4831346]}, "properties": {"amenity": "restaurant", "cuisine": "pizza"}}, {"type": "Feature", "id": 2032365214, "geometry": {"type": "Point", "coordinates": [9.2501987, 45.4713572]}, "properties": {"addr:housenumber": "27", "addr:postcode": "20134", "addr:street": "Via Arcangelo Corelli", "amenity": "restaurant", "cuisine": "italian", "name": "La Galeria", "website": "http://www.galeriaanticatrattoria.it"}}, {"type": "Feature", "id": 2034384164, "geometry": {"type": "Point", "coordinates": [9.2423852, 45.4839435]}, "properties": {"amenity": "restaurant", "name": "Del borgo"}}, {"type": "Feature", "id": 2034717482, "geometry": {"type": "Point", "coordinates": [9.2399492, 45.4823767]}, "properties": {"amenity": "restaurant", "name": "Mauro e Luisa"}}, {"type": "Feature", "id": 2045098824, "geometry": {"type": "Point", "coordinates": [9.1738715, 45.4570039]}, "properties": {"amenity": "restaurant", "name": "La Playa di Taormina"}}, {"type": "Feature", "id": 2045098833, "geometry": {"type": "Point", "coordinates": [9.1728624, 45.4574122]}, "properties": {"amenity": "restaurant", "name": "Vino bucatino guanciale pecorino"}}, {"type": "Feature", "id": 2047965975, "geometry": {"type": "Point", "coordinates": [9.2514157, 45.4123512]}, "properties": {"amenity": "restaurant", "name": "Ristorante Borgo Bagnolo"}}, {"type": "Feature", "id": 2052642511, "geometry": {"type": "Point", "coordinates": [9.1983528, 45.4842205]}, "properties": {"amenity": "restaurant", "name": "L'ombra della sera", "restaurant:type:it": "ristorante;pizzeria", "wheelchair": "yes"}}, {"type": "Feature", "id": 2054093508, "geometry": {"type": "Point", "coordinates": [9.2245824, 45.4389616]}, "properties": {"amenity": "restaurant", "name": "Viv\u00e0"}}, {"type": "Feature", "id": 2061530572, "geometry": {"type": "Point", "coordinates": [9.1083363, 45.4329035]}, "properties": {"addr:housenumber": "24/25", "addr:postcode": "20094", "addr:street": "Via Vittorio Emanuele", "amenity": "restaurant", "cuisine": "regional", "name": "Enoteca Il Grappolo"}}, {"type": "Feature", "id": 2064483921, "geometry": {"type": "Point", "coordinates": [9.2151177, 45.4525484]}, "properties": {"amenity": "restaurant"}}, {"type": "Feature", "id": 2064483925, "geometry": {"type": "Point", "coordinates": [9.2161289, 45.4535211]}, "properties": {"amenity": "restaurant", "name": "Ristorante il Camino"}}, {"type": "Feature", "id": 2065004998, "geometry": {"type": "Point", "coordinates": [9.1764811, 45.495098]}, "properties": {"amenity": "restaurant", "ristorante": "Ristorante Lancetti"}}, {"type": "Feature", "id": 2065266871, "geometry": {"type": "Point", "coordinates": [9.203347, 45.4521321]}, "properties": {"addr:city": "Milano", "addr:country": "IT", "addr:housenumber": "3", "addr:postcode": "20135", "addr:street": "Piazzale Medaglie d'Oro", "amenity": "restaurant", "email": "info@deliziedelmare.com", "name": "Osteria delizia del mare", "opening_hours": "Mo-Sa 12:00-15:00,19:00-23:00; Su off", "phone": "+39 02 55184023", "website": "http://www.deliziedelmare.com"}}, {"type": "Feature", "id": 2066432237, "geometry": {"type": "Point", "coordinates": [9.3129434, 45.4751644]}, "properties": {"amenity": "restaurant"}}, {"type": "Feature", "id": 2066524486, "geometry": {"type": "Point", "coordinates": [9.1411402, 45.4421048]}, "properties": {"addr:housenumber": "7", "addr:street": "Via privata Parenzo", "amenity": "restaurant", "cuisine": "italian", "dance:style": "Argentine tango", "dance:teaching": "yes", "fixme": "Is this a restaurant or a dance school or what else?", "leisure": "dance", "name": "Epoca Tango", "old_name": "Comuna Baires", "website": "http://www.epocatango.it"}}, {"type": "Feature", "id": 2070671974, "geometry": {"type": "Point", "coordinates": [9.2095738, 45.4736158]}, "properties": {"addr:housenumber": "16", "addr:street": "Via Melzo", "amenity": "restaurant", "cuisine": "eritrean", "name": "Warsa", "phone": "+39 02 201673", "website": "http://www.ristorantewarsa.com/"}}, {"type": "Feature", "id": 2072208582, "geometry": {"type": "Point", "coordinates": [9.1811575, 45.4519554]}, "properties": {"amenity": "restaurant", "fixme": "Position approximative", "name": "Tvo\u00ec Vu\u00f2la"}}, {"type": "Feature", "id": 2073347892, "geometry": {"type": "Point", "coordinates": [9.2049508, 45.4469915]}, "properties": {"amenity": "restaurant", "name": "Shannara"}}, {"type": "Feature", "id": 2073347928, "geometry": {"type": "Point", "coordinates": [9.2051918, 45.4485314]}, "properties": {"amenity": "restaurant", "name": "Wu Taiyo"}}, {"type": "Feature", "id": 2075241332, "geometry": {"type": "Point", "coordinates": [9.1824612, 45.459616]}, "properties": {"amenity": "restaurant", "fixme": "Position estimated", "name": "Le Scimmiette"}}, {"type": "Feature", "id": 2079502886, "geometry": {"type": "Point", "coordinates": [9.1429853, 45.495945]}, "properties": {"addr:housenumber": "43", "addr:postcode": "20156", "addr:street": "Viale Carlo Espinasse", "amenity": "restaurant", "cuisine": "italian; Sardinian", "name": "Il Barone"}}, {"type": "Feature", "id": 2084192141, "geometry": {"type": "Point", "coordinates": [9.204954, 45.4629928]}, "properties": {"addr:city": "Milano", "addr:country": "IT", "addr:housenumber": "4", "addr:street": "Via Pompeo Litta", "amenity": "restaurant", "cuisine": "italian", "name": "La Gavetta"}}, {"type": "Feature", "id": 2097778115, "geometry": {"type": "Point", "coordinates": [9.1730171, 45.5146378]}, "properties": {"amenity": "restaurant", "name": "Su Barrile"}}, {"type": "Feature", "id": 2100461053, "geometry": {"type": "Point", "coordinates": [9.2158398, 45.5505576]}, "properties": {"addr:city": "Cinisello Balsamo", "addr:country": "IT", "addr:housenumber": "15", "addr:postcode": "20092", "addr:street": "Via Monfalcone", "amenity": "restaurant", "cuisine": "italian;chinese;sushi", "level": "1", "name": "Niu Nii", "name:en": "Ye\u2019s", "name:it": "Ye\u2019s", "opening_hours": "Mo-Su 12:00-15:00,19:00-23:30", "phone": "+39 02 36708129"}}, {"type": "Feature", "id": 2104112893, "geometry": {"type": "Point", "coordinates": [9.1826076, 45.4887822]}, "properties": {"addr:city": "Milano", "addr:country": "IT", "addr:housenumber": "27", "addr:postcode": "20159", "addr:street": "Via Carlo Farini", "amenity": "restaurant", "cuisine": "italian", "name": "Osteria Scalo Farini", "phone": "+39 02 39543506", "website": "https://www.scalofarini.it/"}}, {"type": "Feature", "id": 2106333998, "geometry": {"type": "Point", "coordinates": [9.1437116, 45.4941436]}, "properties": {"addr:housenumber": "38", "addr:street": "Via Marcantonio dal Re", "amenity": "restaurant", "name": "Ristorante Fiorenza", "website": "http://www.ristorantealbimbo.it/"}}, {"type": "Feature", "id": 2120097812, "geometry": {"type": "Point", "coordinates": [9.1783022, 45.4790509]}, "properties": {"addr:city": "Milano", "addr:housenumber": "10", "addr:postcode": "20154", "addr:street": "Via Pietro Giannone", "amenity": "restaurant", "cuisine": "italian", "description": "Bottiglieria", "name": "La cantina del Giannone"}}, {"type": "Feature", "id": 2123107460, "geometry": {"type": "Point", "coordinates": [9.253379, 45.44928]}, "properties": {"amenity": "restaurant", "cuisine": "italian"}}, {"type": "Feature", "id": 2131565354, "geometry": {"type": "Point", "coordinates": [9.1873798, 45.4564592]}, "properties": {"addr:city": "Milano", "addr:country": "IT", "addr:housenumber": "38", "addr:street": "Corso Italia", "amenity": "restaurant", "email": "angrisani2008@libero.it", "name": "Pizzeria piadineria del Corso Italia", "phone": "+39 02 876702", "website": "https://www.6in.it/pizzeria-del-corso-italia_milano_459"}}, {"type": "Feature", "id": 2135496309, "geometry": {"type": "Point", "coordinates": [9.2361038, 45.4763037]}, "properties": {"amenity": "restaurant", "name": "Mensa"}}, {"type": "Feature", "id": 2146879371, "geometry": {"type": "Point", "coordinates": [9.2139457, 45.4448182]}, "properties": {"amenity": "restaurant", "cuisine": "pizza", "name": "istanbul Bosforo"}}, {"type": "Feature", "id": 2146894826, "geometry": {"type": "Point", "coordinates": [9.2163997, 45.4435837]}, "properties": {"amenity": "restaurant", "cuisine": "pizza"}}, {"type": "Feature", "id": 2146894829, "geometry": {"type": "Point", "coordinates": [9.217368, 45.4431226]}, "properties": {"amenity": "restaurant", "cuisine": "italian"}}, {"type": "Feature", "id": 2161119627, "geometry": {"type": "Point", "coordinates": [9.1915463, 45.4812016]}, "properties": {"amenity": "restaurant", "entrance": "main", "name": "Ristorante All'Opera"}}, {"type": "Feature", "id": 2162395707, "geometry": {"type": "Point", "coordinates": [9.2039148, 45.4810427]}, "properties": {"addr:city": "Milano", "addr:country": "IT", "addr:housenumber": "2", "addr:postcode": "20124", "addr:street": "Via Mauro Macchi", "amenity": "restaurant", "cuisine": "italian", "email": "joseph@anticaosteriacavallini.it", "fax": "+39 02 49532968", "name": "Antica Osteria Cavallini", "phone": "+39 02 6693174", "website": "http://www.anticaosteriacavallini.it/"}}, {"type": "Feature", "id": 2172254735, "geometry": {"type": "Point", "coordinates": [9.1904017, 45.4663105]}, "properties": {"amenity": "restaurant", "cuisine": "italian", "name": "Pap\u00e0 Francesco"}}, {"type": "Feature", "id": 2190924892, "geometry": {"type": "Point", "coordinates": [9.0976196, 45.4464385]}, "properties": {"addr:city": "Cesano Boscone", "addr:country": "IT", "addr:housenumber": "1", "addr:postcode": "20090", "addr:province": "Milano", "addr:street": "Via Camillo Benso Conte di Cavour", "amenity": "restaurant", "name": "Il Calamaro"}}, {"type": "Feature", "id": 2197293996, "geometry": {"type": "Point", "coordinates": [9.1250263, 45.4477585]}, "properties": {"addr:city": "Milano", "addr:country": "IT", "addr:housenumber": "16", "addr:postcode": "20147", "addr:street": "Via Sant'Anatalone", "amenity": "restaurant", "contact:email": "beatote@ristorantebeatote.it", "contact:fax": "+39 02 416448", "contact:phone": "+39 02 84571533", "contact:website": "http://www.ristorantebeatote.it", "cuisine": "italian", "name": "Beato Te"}}, {"type": "Feature", "id": 2197772532, "geometry": {"type": "Point", "coordinates": [9.1880636, 45.4891421]}, "properties": {"addr:city": "Milano", "addr:housenumber": "23", "addr:postcode": "20159", "addr:street": "Via Luigi Porro Lambertenghi", "amenity": "restaurant", "cuisine": "indian", "name": "Taj Mahal"}}, {"type": "Feature", "id": 2199853258, "geometry": {"type": "Point", "coordinates": [9.1992013, 45.4628503]}, "properties": {"amenity": "restaurant", "name": "Mauro"}}, {"type": "Feature", "id": 2208093947, "geometry": {"type": "Point", "coordinates": [9.1864125, 45.4802242]}, "properties": {"addr:city": "Milano", "addr:country": "IT", "addr:housenumber": "1", "addr:postcode": "20121", "addr:street": "Piazza 25 Aprile", "amenity": "restaurant", "cuisine": "regional", "name": "Vasinik\u00f2", "opening_hours": "Mo-Su 12:00-16:00,19:00-01:00", "phone": "+39 02 65580164", "website": "http://www.vasiniko.com/"}}, {"type": "Feature", "id": 2214966862, "geometry": {"type": "Point", "coordinates": [9.2199225, 45.4960239]}, "properties": {"addr:city": "Milano", "addr:country": "IT", "addr:housenumber": "82", "addr:street": "Viale Monza", "amenity": "restaurant", "cuisine": "pizza:italian", "description": "ristorante, pizzeria forno a legna, pizza d'asporto", "name": "Rovereto"}}, {"type": "Feature", "id": 2215015116, "geometry": {"type": "Point", "coordinates": [9.219732, 45.4955071]}, "properties": {"amenity": "restaurant", "cuisine": "asian", "name": "Jun's Mea"}}, {"type": "Feature", "id": 2223277709, "geometry": {"type": "Point", "coordinates": [9.1810168, 45.4570731]}, "properties": {"amenity": "restaurant", "cuisine": "pizza"}}, {"type": "Feature", "id": 2225549092, "geometry": {"type": "Point", "coordinates": [9.2072361, 45.4953223]}, "properties": {"addr:housenumber": "141", "addr:street": "Via Melchiorre Gioia", "amenity": "restaurant", "cuisine": "italian;chinese", "name": "Fei Yun Ge", "outdoor_seating": "no", "phone": "+39 02 66985374", "ref:vatin": "IT10182620152"}}, {"type": "Feature", "id": 2226474648, "geometry": {"type": "Point", "coordinates": [9.1868875, 45.4661825]}, "properties": {"addr:city": "Milano", "addr:country": "IT", "addr:housenumber": "6", "addr:postcode": "20121", "addr:street": "Via Bassano Porrone", "amenity": "restaurant", "name": "Le Banque", "website": "https://www.lebanque.it/", "wheelchair": "no"}}, {"type": "Feature", "id": 2226508083, "geometry": {"type": "Point", "coordinates": [9.1717647, 45.4578113]}, "properties": {"amenity": "restaurant", "cuisine": "japanese;chinese", "name": "Ristorante X & C"}}, {"type": "Feature", "id": 2226705918, "geometry": {"type": "Point", "coordinates": [9.1766346, 45.445005]}, "properties": {"amenity": "restaurant", "name": "BigfPizza da Vicky"}}, {"type": "Feature", "id": 2226705923, "geometry": {"type": "Point", "coordinates": [9.1779054, 45.4502174]}, "properties": {"amenity": "restaurant", "name": "Antica Osteria Briosca"}}, {"type": "Feature", "id": 2226705947, "geometry": {"type": "Point", "coordinates": [9.1783772, 45.4518697]}, "properties": {"amenity": "restaurant", "name": "Ciccio Pasticcio"}}, {"type": "Feature", "id": 2226711439, "geometry": {"type": "Point", "coordinates": [9.1764833, 45.443891]}, "properties": {"amenity": "restaurant", "cuisine": "japanese", "name": "Ristorante Giapponese Ashai"}}, {"type": "Feature", "id": 2226725541, "geometry": {"type": "Point", "coordinates": [9.1779373, 45.453119]}, "properties": {"amenity": "restaurant", "name": "Caff\u00e8 Viarenna"}}, {"type": "Feature", "id": 2226725545, "geometry": {"type": "Point", "coordinates": [9.1771812, 45.4533187]}, "properties": {"amenity": "restaurant", "cuisine": "japanese", "name": "Jin Zan"}}, {"type": "Feature", "id": 2226725548, "geometry": {"type": "Point", "coordinates": [9.1770146, 45.4534351]}, "properties": {"amenity": "restaurant", "cuisine": "indian", "name": "Garam Masala"}}, {"type": "Feature", "id": 2226730506, "geometry": {"type": "Point", "coordinates": [9.1819338, 45.4529158]}, "properties": {"amenity": "restaurant", "cuisine": "italian", "name": "Cacio e Pepe"}}, {"type": "Feature", "id": 2226730509, "geometry": {"type": "Point", "coordinates": [9.1826955, 45.4528669]}, "properties": {"addr:city": "Milano", "addr:country": "IT", "addr:housenumber": "7", "addr:postcode": "20122", "addr:street": "Viale Gian Galeazzo", "amenity": "restaurant", "cuisine": "indian", "name": "Shiva", "phone": "+39 02 89404746", "website": "http://www.ristoranteshiva.it/"}}, {"type": "Feature", "id": 2232047187, "geometry": {"type": "Point", "coordinates": [9.220804, 45.5179843]}, "properties": {"amenity": "restaurant", "cuisine": "italian;chinese;pizza", "name": "Il riccone"}}, {"type": "Feature", "id": 2250905673, "geometry": {"type": "Point", "coordinates": [9.2172885, 45.4840604]}, "properties": {"amenity": "restaurant", "cuisine": "chinese", "name": "Felice"}}, {"type": "Feature", "id": 2262460456, "geometry": {"type": "Point", "coordinates": [9.1754298, 45.4517071]}, "properties": {"amenity": "restaurant", "name": "Locandina dei Navigli"}}, {"type": "Feature", "id": 2262460461, "geometry": {"type": "Point", "coordinates": [9.1686062, 45.4567534]}, "properties": {"amenity": "restaurant", "cuisine": "italian", "name": "Anema e Cozze"}}, {"type": "Feature", "id": 2262460463, "geometry": {"type": "Point", "coordinates": [9.1752314, 45.4516676]}, "properties": {"amenity": "restaurant", "name": "Ponte Rosso Trattoria"}}, {"type": "Feature", "id": 2262460464, "geometry": {"type": "Point", "coordinates": [9.177039, 45.4520609]}, "properties": {"amenity": "restaurant", "name": "Pizzeria Tradzionale Trattoria"}}, {"type": "Feature", "id": 2263249788, "geometry": {"type": "Point", "coordinates": [9.2304897, 45.4828674]}, "properties": {"amenity": "restaurant", "name": "Al piccolo borgo", "website": "http://alpiccoloborgo.it"}}, {"type": "Feature", "id": 2266246540, "geometry": {"type": "Point", "coordinates": [9.1630856, 45.454255]}, "properties": {"addr:housenumber": "16", "addr:street": "Via Bergognone Da Fossano", "amenity": "restaurant", "description": "luogo anche per il cibo", "email": "Info@latradizionale.com", "fax": "0247711952", "name": "La Tradizionale", "opening_hours": "Mo-Su 12:00-14:30, 19:00-00:00", "phone": "0242292026", "website": "https://www.latradizionale.com/"}}, {"type": "Feature", "id": 2266640270, "geometry": {"type": "Point", "coordinates": [9.2049095, 45.4516365]}, "properties": {"addr:housenumber": "3", "addr:street": "Via Bernardino Corio", "amenity": "restaurant", "cuisine": "regional", "name": "Dongi\u00f2"}}, {"type": "Feature", "id": 2266640272, "geometry": {"type": "Point", "coordinates": [9.2043152, 45.4519271]}, "properties": {"amenity": "restaurant", "name": "Osteria Romana Giulio Pane e Ojo"}}, {"type": "Feature", "id": 2266640273, "geometry": {"type": "Point", "coordinates": [9.205018, 45.4520738]}, "properties": {"amenity": "restaurant", "name": "Abbottega"}}, {"type": "Feature", "id": 2266640274, "geometry": {"type": "Point", "coordinates": [9.2060963, 45.4512244]}, "properties": {"addr:housenumber": "7", "addr:street": "Via Francesco Burlamacchi", "amenity": "restaurant", "cuisine": "spanish", "name": "Tapa' n Kitchen Bar"}}, {"type": "Feature", "id": 2272560098, "geometry": {"type": "Point", "coordinates": [9.1838238, 45.4825418]}, "properties": {"addr:city": "Milano", "addr:country": "IT", "addr:housenumber": "8", "addr:street": "Via Pietro Maroncelli", "amenity": "restaurant", "contact:phone": "+39 02 62690631", "contact:website": "http://www.ristorantecost.it", "name": "Cost", "operator": "Cieffe srl", "ref:vatin": "IT06769610962"}}, {"type": "Feature", "id": 2272594742, "geometry": {"type": "Point", "coordinates": [9.1819259, 45.4838771]}, "properties": {"addr:city": "Milano", "addr:country": "IT", "addr:housenumber": "23", "addr:postcode": "20154", "addr:street": "Via Maurizio Quadrio", "amenity": "restaurant", "cuisine": "chinese", "email": "info@enotecahuaxia.com", "name": "Enoteca Huaxia", "phone": "+39 02 87240358", "shop": "wine", "website": "http://www.enotecahuaxia.com/"}}, {"type": "Feature", "id": 2272629876, "geometry": {"type": "Point", "coordinates": [9.1849756, 45.482557]}, "properties": {"addr:city": "Milano", "addr:country": "IT", "addr:housenumber": "11", "addr:postcode": "20154", "addr:street": "Via privata Nino Bonnet", "amenity": "restaurant", "name": "Il Gusto della Nebbia"}}, {"type": "Feature", "id": 2272857766, "geometry": {"type": "Point", "coordinates": [9.1708018, 45.5220977]},